id,country,state,city,station,station_code,last_update,latitude,longitude,pollutant_id,pollutant_min,pollutant_max,pollutant_avg
0,India,Andhra_Pradesh,A0ntapur,Gulzarpet, APPCB,26-12-2023 22:00,14.675886,77.593027,SO2,0,0,0
1,India,Andhra_Pradesh,Chittoor,Gangineni Cheruvu, APPCB,26-12-2023 22:00,13.20488,79.097889,SO2,7,32,12
2,India,Andhra_Pradesh,Tirupati,Tirumala, APPCB,26-12-2023 22:00,13.67,79.35,NH3,2,5,3
3,India,Andhra_Pradesh,Tirupati,Tirumala, APPCB,26-12-2023 22:00,13.67,79.35,CO,40,64,47
4,India,Andhra_Pradesh,Tirupati,Tirumala, APPCB,26-12-2023 22:00,13.67,79.35,OZONE,9,50,34
5,India,Andhra_Pradesh,Tirupati,Vaikuntapuram, APPCB,26-12-2023 22:00,13.615387,79.40923,PM10,16,250,91
6,India,Andhra_Pradesh,Tirupati,Vaikuntapuram, APPCB,26-12-2023 22:00,13.615387,79.40923,CO,42,57,48
7,India,Andhra_Pradesh,Vijayawada,HB Colony, APPCB,26-12-2023 22:00,16.536107,80.594233,PM10,31,66,46
8,India,Andhra_Pradesh,Vijayawada,HB Colony, APPCB,26-12-2023 22:00,16.536107,80.594233,CO,24,24,24
9,India,Andhra_Pradesh,Vijayawada,Rajiv Gandhi Park, APPCB,26-12-2023 22:00,16.509717,80.612222,PM2.5,52,82,66
10,India,Andhra_Pradesh,Vijayawada,Rajiv Gandhi Park, APPCB,26-12-2023 22:00,16.509717,80.612222,OZONE,3,78,52
11,India,Andhra_Pradesh,Visakhapat0m,GVM Corporation, APPCB,26-12-2023 22:00,17.72,83.3,PM2.5,103,310,186
12,India,Assam,Guwahati,IITG, PCBA,26-12-2023 22:00,26.2028636,91.70046436,PM2.5,46,330,202
13,India,Assam,Guwahati,IITG, PCBA,26-12-2023 22:00,26.2028636,91.70046436,SO2,12,14,13
14,India,Assam,Guwahati,IITG, PCBA,26-12-2023 22:00,26.2028636,91.70046436,OZONE,1,18,8
15,India,Assam,0gaon,Christianpatty, PCBA,26-12-2023 22:00,26.349082,92.68449,PM2.5,45,210,87
16,India,Assam,0lbari,Bata Chowk, PCBA,26-12-2023 22:00,26.446912,91.439057,NO2,39,62,49
17,India,Assam,Silchar,Tarapur, PCBA,26-12-2023 22:00,24.82827,92.79525,NH3,1,1,1
18,India,Assam,Silchar,Tarapur, PCBA,26-12-2023 22:00,24.82827,92.79525,CO,27,43,32
19,India,Assam,Sivasagar,Girls College, PCBA,26-12-2023 22:00,26.987634,94.636574,NH3,1,3,2
20,India,Bihar,Araria,Kharahiya Basti, BSPCB,26-12-2023 22:00,26.146529,87.454184,OZONE,10,50,27
21,India,Bihar,Arrah,New DM Office, BSPCB,26-12-2023 22:00,25.5626095,84.663264,PM10,105,260,170
22,India,Bihar,Aurangabad,Gurdeo 0gar, BSPCB,26-12-2023 22:00,24.75746,84.366208,OZONE,1,76,28
23,India,Bihar,Bettiah,Kamal0th 0gar, BSPCB,26-12-2023 22:00,26.80365,84.51954,SO2,12,18,15
24,India,Bihar,Bhagalpur,DM Office_Kachari Chowk, BSPCB,26-12-2023 22:00,25.251013,86.989001,CO,34,74,60
25,India,Bihar,Bhagalpur,Mayaganj, BSPCB,26-12-2023 22:00,25.265194,87.012947,SO2,10,14,12
26,India,Bihar,Bihar Sharif,D M Colony, BSPCB,26-12-2023 22:00,25.204762,85.51496,NH3,2,2,2
27,India,Bihar,Gaya,Collectorate, BSPCB,26-12-2023 22:00,24.7955,84.9994,OZONE,50,76,58
28,India,Bihar,Gaya,Kareemganj, BSPCB,26-12-2023 22:00,24.792403,84.992416,NO2,30,31,30
29,India,Bihar,Gaya,SFTI Kusdihra, BSPCB,26-12-2023 22:00,24.762518,84.982348,CO,32,66,40
30,India,Bihar,Gaya,SFTI Kusdihra, BSPCB,26-12-2023 22:00,24.762518,84.982348,OZONE,2,78,40
31,India,Bihar,Hajipur,Industrial Area, BSPCB,26-12-2023 22:00,25.697189,85.2459,PM10,134,473,225
32,India,Bihar,Katihar,Mirchaibari, BSPCB,26-12-2023 22:00,25.560083,87.553265,OZONE,18,25,22
33,India,Bihar,Kishanganj,SDM Office_Khagra, BSPCB,26-12-2023 22:00,26.0881305,87.93840336,PM2.5,38,263,95
34,India,Bihar,Kishanganj,SDM Office_Khagra, BSPCB,26-12-2023 22:00,26.0881305,87.93840336,OZONE,17,50,31
35,India,Bihar,Motihari,Gandak Colony, BSPCB,26-12-2023 22:00,26.63086,84.90051,NO2,86,135,105
36,India,Bihar,Motihari,Gandak Colony, BSPCB,26-12-2023 22:00,26.63086,84.90051,NH3,14,23,17
37,India,Bihar,Motihari,Gandak Colony, BSPCB,26-12-2023 22:00,26.63086,84.90051,OZONE,29,63,37
38,India,Bihar,Muzaffarpur,Buddha Colony, BSPCB,26-12-2023 22:00,26.11442,85.39813,SO2,0,0,0
39,India,Bihar,Muzaffarpur,Buddha Colony, BSPCB,26-12-2023 22:00,26.11442,85.39813,CO,2,106,33
40,India,Bihar,Muzaffarpur,Buddha Colony, BSPCB,26-12-2023 22:00,26.11442,85.39813,OZONE,17,73,49
41,India,Bihar,Muzaffarpur,Muzaffarpur Collectorate, BSPCB,26-12-2023 22:00,26.1209,85.3647,PM2.5,62,456,189
42,India,Bihar,Muzaffarpur,Muzaffarpur Collectorate, BSPCB,26-12-2023 22:00,26.1209,85.3647,OZONE,16,74,39
43,India,Bihar,Pat0,DRM Office Da0pur, BSPCB,26-12-2023 22:00,25.586562,85.043586,NO2,9,94,41
44,India,Bihar,Pat0,DRM Office Da0pur, BSPCB,26-12-2023 22:00,25.586562,85.043586,CO,16,167,66
45,India,Bihar,Pat0,Govt. High School Shikarpur, BSPCB,26-12-2023 22:00,25.592539,85.227158,PM2.5,93,330,227
46,India,Bihar,Pat0,Govt. High School Shikarpur, BSPCB,26-12-2023 22:00,25.592539,85.227158,PM10,70,500,204
47,India,Bihar,Pat0,Muradpur, BSPCB,26-12-2023 22:00,25.619651,85.147382,NO2,22,195,54
48,India,Bihar,Pat0,Muradpur, BSPCB,26-12-2023 22:00,25.619651,85.147382,NH3,3,50,10
49,India,Bihar,Pat0,Rajbansi 0gar, BSPCB,26-12-2023 22:00,25.599486,85.113666,CO,73,116,98
50,India,Bihar,Pat0,Samanpura, BSPCB,26-12-2023 22:00,25.596727,85.085624,CO,101,186,179
51,India,Bihar,Pat0,Samanpura, BSPCB,26-12-2023 22:00,25.596727,85.085624,OZONE,7,46,23
52,India,Bihar,Rajgir,Dangi Tola, BSPCB,26-12-2023 22:00,25.0328,85.41948,PM2.5,68,406,273
53,India,Bihar,Rajgir,Dangi Tola, BSPCB,26-12-2023 22:00,25.0328,85.41948,NH3,1,2,1
54,India,Bihar,Saharsa,Police Line, BSPCB,26-12-2023 22:00,25.892357,86.590325,OZONE,2,8,6
55,India,Bihar,Siwan,Chitragupta 0gar, BSPCB,26-12-2023 22:00,26.2271665,84.3570427,PM2.5,0,0,0
56,India,Bihar,Siwan,Chitragupta 0gar, BSPCB,26-12-2023 22:00,26.2271665,84.3570427,NO2,16,117,43
57,India,Bihar,Siwan,Chitragupta 0gar, BSPCB,26-12-2023 22:00,26.2271665,84.3570427,SO2,4,68,29
58,India,Bihar,Siwan,Chitragupta 0gar, BSPCB,26-12-2023 22:00,26.2271665,84.3570427,OZONE,2,82,36
59,India,Chandigarh,Chandigarh,Sector 22, CPCC,26-12-2023 22:00,30.735567,76.775714,PM2.5,307,416,346
60,India,Chandigarh,Chandigarh,Sector 22, CPCC,26-12-2023 22:00,30.735567,76.775714,PM10,146,411,236
61,India,Chandigarh,Chandigarh,Sector 22, CPCC,26-12-2023 22:00,30.735567,76.775714,CO,27,119,98
62,India,Chandigarh,Chandigarh,Sector 22, CPCC,26-12-2023 22:00,30.751462,76.762879,NO2,8,58,29
63,India,Chhattisgarh,Bhilai,32Bungalows, CECB,26-12-2023 22:00,21.194815,81.31477,NO2,20,33,25
64,India,Chhattisgarh,Bhilai,32Bungalows, CECB,26-12-2023 22:00,21.194815,81.31477,SO2,8,11,10
65,India,Chhattisgarh,Bhilai,32Bungalows, CECB,26-12-2023 22:00,21.194815,81.31477,OZONE,4,8,6
66,India,Chhattisgarh,Bilaspur,Mangala, NTPC,26-12-2023 22:00,22.08815,82.13737,PM2.5,0,0,0
67,India,Chhattisgarh,Chhal,0wapara SECL Colony, CECB,26-12-2023 22:00,22.118125,83.140608,PM2.5,54,246,118
68,India,Chhattisgarh,Chhal,0wapara SECL Colony, CECB,26-12-2023 22:00,22.118125,83.140608,NO2,0,0,0
69,India,Chhattisgarh,Korba,Urja 0gar, CECB,26-12-2023 22:00,22.348441,82.549611,NO2,65,90,75
70,India,Chhattisgarh,Kunjemura,OP Jindal School, CECB,26-12-2023 22:00,22.12665,83.483212,NO2,33,155,70
71,India,Chhattisgarh,Milupara,Govt. Higher Secondary School, CECB,26-12-2023 22:00,22.1910172,83.5197009,PM2.5,55,86,68
72,India,Chhattisgarh,Raipur,AIIMS, CECB,26-12-2023 22:00,21.258815,81.578979,PM10,0,0,0
73,India,Chhattisgarh,Raipur,AIIMS, CECB,26-12-2023 22:00,21.258815,81.578979,NO2,64,89,76
74,India,Chhattisgarh,Raipur,Bhatagaon New ISBT, CECB,26-12-2023 22:00,21.219665,81.630094,PM2.5,0,0,0
75,India,Chhattisgarh,Raipur,Bhatagaon New ISBT, CECB,26-12-2023 22:00,21.219665,81.630094,OZONE,4,44,20
76,India,Chhattisgarh,Raipur,Krishak 0gar, CECB,26-12-2023 22:00,21.237755,81.705301,PM10,98,171,126
77,India,Chhattisgarh,Raipur,Krishak 0gar, CECB,26-12-2023 22:00,21.237755,81.705301,NO2,26,47,38
78,India,Chhattisgarh,Raipur,Krishak 0gar, CECB,26-12-2023 22:00,21.237755,81.705301,SO2,6,12,9
79,India,Chhattisgarh,Tumidih,OP Jindal Industrial Park, CECB,26-12-2023 22:00,22.06631475,83.33820077,NO2,9,52,22
80,India,Delhi,Delhi,Alipur, DPCC,26-12-2023 22:00,28.815329,77.15301,NO2,31,83,56
81,India,Delhi,Delhi,Alipur, DPCC,26-12-2023 22:00,28.815329,77.15301,NH3,9,13,11
82,India,Delhi,Delhi,A0nd Vihar, DPCC,26-12-2023 22:00,28.647622,77.315809,PM10,290,500,381
83,India,Delhi,Delhi,Ashok Vihar, DPCC,26-12-2023 22:00,28.695381,77.181665,NH3,16,23,18
84,India,Delhi,Delhi,Ashok Vihar, DPCC,26-12-2023 22:00,28.695381,77.181665,CO,66,158,155
85,India,Delhi,Delhi,Aya 0gar, IMD,26-12-2023 22:00,28.4706914,77.1099364,PM10,139,298,244
86,India,Delhi,Delhi,Aya 0gar, IMD,26-12-2023 22:00,28.4706914,77.1099364,OZONE,31,60,48
87,India,Delhi,Delhi,Bawa0, DPCC,26-12-2023 22:00,28.7762,77.051074,PM2.5,327,466,377
88,India,Delhi,Delhi,CRRI Mathura Road, IMD,26-12-2023 22:00,28.5512005,77.2735737,NO2,25,31,28
89,India,Delhi,Delhi,DTU, CPCB,26-12-2023 22:00,28.7500499,77.1112615,NO2,39,149,96
90,India,Delhi,Delhi,Dwarka, DPCC ,26-12-2023 22:00,28.5710274,77.0719006,OZONE,1,36,16
91,India,Delhi,Delhi,IGI Airport (T3), IMD,26-12-2023 22:00,28.5627763,77.1180053,CO,76,120,91
92,India,Delhi,Delhi,IHBAS, CPCB,26-12-2023 22:00,28.6811736,77.3025234,SO2,0,0,0
93,India,Delhi,Delhi,ITO, CPCB,26-12-2023 22:00,28.628624,77.24106,PM2.5,341,500,418
94,India,Delhi,Delhi,ITO, CPCB,26-12-2023 22:00,28.628624,77.24106,CO,14,139,78
95,India,Delhi,Delhi,Jahangirpuri, DPCC,26-12-2023 22:00,28.73282,77.170633,SO2,11,23,16
96,India,Delhi,Delhi,Lodhi Road, IMD,26-12-2023 22:00,28.5918245,77.2273074,PM10,151,339,220
97,India,Delhi,Delhi,Lodhi Road, IMD,26-12-2023 22:00,28.5918245,77.2273074,CO,98,119,102
98,India,Delhi,Delhi,Major Dhyan Chand 0tio0l Stadium, DPCC,26-12-2023 22:00,28.611281,77.237738,PM10,159,434,301
99,India,Delhi,Delhi,Major Dhyan Chand 0tio0l Stadium, DPCC,26-12-2023 22:00,28.611281,77.237738,OZONE,1,68,26
100,India,Delhi,Delhi,Mandir Marg, DPCC,26-12-2023 22:00,28.636429,77.201067,PM2.5,85,468,367
101,India,Delhi,Delhi,Mandir Marg, DPCC,26-12-2023 22:00,28.636429,77.201067,PM10,146,440,260
102,India,Delhi,Delhi,Mundka, DPCC,26-12-2023 22:00,28.684678,77.076574,PM2.5,371,500,439
103,India,Delhi,Delhi,Mundka, DPCC,26-12-2023 22:00,28.684678,77.076574,PM10,210,500,355
104,India,Delhi,Delhi,NSIT Dwarka, CPCB,26-12-2023 22:00,28.60909,77.0325413,SO2,9,22,14
105,India,Delhi,Delhi,0jafgarh, DPCC,26-12-2023 22:00,28.570173,76.933762,NO2,9,22,13
106,India,Delhi,Delhi,0jafgarh, DPCC,26-12-2023 22:00,28.570173,76.933762,NH3,2,11,4
107,India,Delhi,Delhi,0jafgarh, DPCC,26-12-2023 22:00,28.570173,76.933762,OZONE,1,54,29
108,India,Delhi,Delhi,0rela, DPCC,26-12-2023 22:00,28.822836,77.101981,PM10,150,402,238
109,India,Delhi,Delhi,0rela, DPCC,26-12-2023 22:00,28.822836,77.101981,NO2,18,55,30
110,India,Delhi,Delhi,0rela, DPCC,26-12-2023 22:00,28.822836,77.101981,NH3,15,20,17
111,India,Delhi,Delhi,0rela, DPCC,26-12-2023 22:00,28.822836,77.101981,SO2,1,5,2
112,India,Delhi,Delhi,Nehru 0gar, DPCC,26-12-2023 22:00,28.56789,77.250515,SO2,11,22,15
113,India,Delhi,Delhi,North Campus, IMD,26-12-2023 22:00,28.6573814,77.1585447,PM10,0,0,0
114,India,Delhi,Delhi,Okhla Phase, DPCC,26-12-2023 22:00,28.530785,77.271255,NO2,79,148,113
115,India,Delhi,Delhi,Okhla Phase, DPCC,26-12-2023 22:00,28.530785,77.271255,OZONE,10,86,41
116,India,Delhi,Delhi,Punjabi Bagh, DPCC,26-12-2023 22:00,28.674045,77.131023,SO2,1,32,16
117,India,Delhi,Delhi,Pusa, DPCC,26-12-2023 22:00,28.639652,77.146275,PM10,235,447,370
118,India,Delhi,Delhi,Pusa, IMD,26-12-2023 22:00,28.63611,77.173332,CO,86,125,99
119,India,Delhi,Delhi,R K Puram, DPCC,26-12-2023 22:00,28.563262,77.186937,OZONE,8,153,71
120,India,Delhi,Delhi,Rohini, DPCC,26-12-2023 22:00,28.732528,77.11992,PM2.5,310,450,394
121,India,Delhi,Delhi,Sirifort, CPCB,26-12-2023 22:00,28.5504249,77.2159377,PM10,60,452,284
122,India,Delhi,Delhi,Sirifort, CPCB,26-12-2023 22:00,28.5504249,77.2159377,NO2,67,195,159
123,India,Delhi,Delhi,Sonia Vihar, DPCC,26-12-2023 22:00,28.710508,77.249485,PM10,184,448,314
124,India,Delhi,Delhi,Sri Aurobindo Marg, DPCC,26-12-2023 22:00,28.531346,77.190156,PM2.5,316,425,369
125,India,Delhi,Delhi,Sri Aurobindo Marg, DPCC,26-12-2023 22:00,28.531346,77.190156,NH3,0,0,0
126,India,Delhi,Delhi,Vivek Vihar, DPCC,26-12-2023 22:00,28.672342,77.31526,CO,24,119,67
127,India,Gujarat,Ahmedabad,Gyaspur, IITM,26-12-2023 22:00,22.977134,72.553024,NO2,1,7,3
128,India,Gujarat,Ahmedabad,Mani0gar, GPCB,26-12-2023 22:00,23.002657,72.591912,CO,11,96,46
129,India,Gujarat,Ahmedabad,Raikhad, IITM,26-12-2023 22:00,23.020509,72.579261,SO2,3,3,3
130,India,Gujarat,Ahmedabad,Raikhad, IITM,26-12-2023 22:00,23.020509,72.579261,OZONE,13,14,14
131,India,Gujarat,Ahmedabad,Rakhial, IITM,26-12-2023 22:00,23.016834,72.625775,NO2,6,17,9
132,India,Gujarat,Ahmedabad,SAC ISRO Bopal, IITM,26-12-2023 22:00,23.041137,72.456691,OZONE,2,3,2
133,India,Gujarat,Ahmedabad,SAC ISRO Satellite, IITM,26-12-2023 22:00,23.023389,72.515201,PM2.5,92,129,119
134,India,Gujarat,Ahmedabad,SAC ISRO Satellite, IITM,26-12-2023 22:00,23.023389,72.515201,NH3,2,4,3
135,India,Gujarat,Ahmedabad,SAC ISRO Satellite, IITM,26-12-2023 22:00,23.023389,72.515201,OZONE,2,40,22
136,India,Gujarat,Ahmedabad,SVPI Airport Hansol, IITM,26-12-2023 22:00,23.076793,72.627874,NO2,10,10,10
137,India,Gujarat,Ahmedabad,Sardar Vallabhbhai Patel Stadium, IITM,26-12-2023 22:00,23.04307,72.562968,NO2,12,13,13
138,India,Gujarat,Ahmedabad,Sardar Vallabhbhai Patel Stadium, IITM,26-12-2023 22:00,23.04307,72.562968,NH3,3,3,3
139,India,Gujarat,Ankleshwar,GIDC, GPCB,26-12-2023 22:00,21.613267,73.010555,SO2,26,102,55
140,India,Gujarat,Ankleshwar,GIDC, GPCB,26-12-2023 22:00,21.613267,73.010555,OZONE,20,41,32
141,India,Gujarat,Gandhi0gar,GIFT City, IITM,26-12-2023 22:00,23.163798,72.677768,PM10,89,125,105
142,India,Gujarat,Gandhi0gar,IIPHG Lekawada, IITM,26-12-2023 22:00,23.243639,72.68994,SO2,9,10,9
143,India,Gujarat,Gandhi0gar,Sector, GPCB,26-12-2023 22:00,23.221714,72.654328,OZONE,10,29,29
144,India,Gujarat,Surat,Science Center, SMC,26-12-2023 22:00,21.170046,72.795405,PM2.5,61,158,94
145,India,Gujarat,Surat,Science Center, SMC,26-12-2023 22:00,21.170046,72.795405,NO2,7,15,11
146,India,Gujarat,Vapi,Phase, GPCB,26-12-2023 22:00,20.362421,72.918013,CO,1,175,120
147,India,Gujarat,Vapi,Phase, GPCB,26-12-2023 22:00,20.362421,72.918013,OZONE,1,8,4
148,India,Gujarat,Vatva,Phase, GPCB,26-12-2023 22:00,22.969611,72.6435,NO2,13,149,57
149,India,Gujarat,Vatva,Phase, GPCB,26-12-2023 22:00,22.969611,72.6435,CO,38,40,39
150,India,Gujarat,Vatva,Phase, GPCB,26-12-2023 22:00,22.969611,72.6435,OZONE,4,51,26
151,India,Harya0,Ambala,Patti Mehar, HSPCB,26-12-2023 22:00,30.379589,76.778328,SO2,2,9,5
152,India,Harya0,Bahadurgarh,Arya 0gar, HSPCB,26-12-2023 22:00,28.6701,76.9254,SO2,8,16,10
153,India,Harya0,Ballabgarh,0thu Colony, HSPCB,26-12-2023 22:00,28.3419248,77.319699,NH3,1,2,2
154,India,Harya0,Ballabgarh,0thu Colony, HSPCB,26-12-2023 22:00,28.3419248,77.319699,SO2,2,14,7
155,India,Harya0,Ballabgarh,0thu Colony, HSPCB,26-12-2023 22:00,28.3419248,77.319699,CO,5,107,56
156,India,Harya0,Ballabgarh,0thu Colony, HSPCB,26-12-2023 22:00,28.3419248,77.319699,OZONE,4,47,24
157,India,Harya0,Bhiwani,H.B. Colony, HSPCB,26-12-2023 22:00,28.806223,76.141105,CO,72,103,91
158,India,Harya0,Dharuhera,Municipal Corporation Office,  HSPCB,26-12-2023 22:00,28.2068,76.7997,PM2.5,83,325,236
159,India,Harya0,Faridabad,Sector 30, HSPCB,26-12-2023 22:00,28.4417,77.3217,PM10,135,148,141
160,India,Harya0,Faridabad,Sector 30, HSPCB,26-12-2023 22:00,28.4417,77.3217,NO2,30,33,31
161,India,Harya0,Faridabad,Sector 30, HSPCB,26-12-2023 22:00,28.4417,77.3217,NH3,9,9,9
162,India,Harya0,Faridabad,Sector 30, HSPCB,26-12-2023 22:00,28.4417,77.3217,CO,30,140,78
163,India,Harya0,Faridabad,Sector, HSPCB,26-12-2023 22:00,28.4088421,77.3099081,SO2,3,25,16
164,India,Harya0,Fatehabad,Huda Sector, HSPCB,26-12-2023 22:00,29.503664,75.467934,PM2.5,27,367,228
165,India,Harya0,Fatehabad,Huda Sector, HSPCB,26-12-2023 22:00,29.503664,75.467934,NO2,28,31,30
166,India,Harya0,Gurugram,NISE Gwal Pahari, IMD,26-12-2023 22:00,28.422681,77.148944,PM2.5,93,397,295
167,India,Harya0,Gurugram,NISE Gwal Pahari, IMD,26-12-2023 22:00,28.422681,77.148944,PM10,103,299,206
168,India,Harya0,Gurugram,Sector, HSPCB,26-12-2023 22:00,28.4227,77.0667,PM10,137,481,204
169,India,Harya0,Gurugram,Teri Gram, HSPCB,26-12-2023 22:00,28.4275,77.1465,NO2,16,72,41
170,India,Harya0,Gurugram,Teri Gram, HSPCB,26-12-2023 22:00,28.4275,77.1465,SO2,2,5,4
171,India,Harya0,Hisar,Urban Estate, HSPCB,26-12-2023 22:00,29.14056,75.744941,PM10,110,226,160
172,India,Harya0,Hisar,Urban Estate, HSPCB,26-12-2023 22:00,29.14056,75.744941,SO2,2,52,26
173,India,Harya0,Jind,Police Lines, HSPCB,26-12-2023 22:00,29.307814,76.337619,OZONE,1,20,12
174,India,Harya0,Kaithal,Rishi 0gar, HSPCB,26-12-2023 22:00,29.8006,76.4155,PM2.5,63,262,154
175,India,Harya0,Kaithal,Rishi 0gar, HSPCB,26-12-2023 22:00,29.8006,76.4155,NO2,24,26,25
176,India,Harya0,Kaithal,Rishi 0gar, HSPCB,26-12-2023 22:00,29.8006,76.4155,SO2,1,16,6
177,India,Harya0,Kar0l,Sector, HSPCB,26-12-2023 22:00,29.6953,77.0027,OZONE,32,37,35
178,India,Harya0,Kurukshetra,Sector, HSPCB,26-12-2023 22:00,29.966942,76.875879,NH3,6,6,6
179,India,Harya0,Kurukshetra,Sector, HSPCB,26-12-2023 22:00,29.966942,76.875879,SO2,1,36,10
180,India,Harya0,Kurukshetra,Sector, HSPCB,26-12-2023 22:00,29.966942,76.875879,CO,36,112,69
181,India,Harya0,Mandikhera,General Hospital, HSPCB,26-12-2023 22:00,27.9002,76.9938,SO2,30,37,34
182,India,Harya0,Mandikhera,General Hospital, HSPCB,26-12-2023 22:00,27.9002,76.9938,OZONE,22,32,26
183,India,Harya0,Manesar,Sector, HSPCB,26-12-2023 22:00,28.360699,76.93609,PM2.5,122,404,234
184,India,Harya0,Palwal,Shyam 0gar, HSPCB,26-12-2023 22:00,28.1485564,77.3320667,SO2,2,9,6
185,India,Harya0,Palwal,Shyam 0gar, HSPCB,26-12-2023 22:00,28.1485564,77.3320667,OZONE,1,40,21
186,India,Harya0,Panchkula,Sector, HSPCB ,26-12-2023 22:00,30.7057778,76.85318056,NO2,28,30,29
187,India,Harya0,Panchkula,Sector, HSPCB ,26-12-2023 22:00,30.7057778,76.85318056,OZONE,38,71,48
188,India,Harya0,Panipat,Sector, HSPCB,26-12-2023 22:00,29.497973,76.993331,PM2.5,187,209,199
189,India,Harya0,Panipat,Sector, HSPCB,26-12-2023 22:00,29.497973,76.993331,PM10,168,177,173
190,India,Harya0,Sirsa,F, HSPCB,26-12-2023 22:00,29.5364,75.0158,PM2.5,80,295,131
191,India,Harya0,Sirsa,F, HSPCB,26-12-2023 22:00,29.5364,75.0158,NO2,10,10,10
192,India,Harya0,Sonipat,Murthal, HSPCB,26-12-2023 22:00,29.0272,77.0621,NH3,7,10,9
193,India,Himachal Pradesh,Baddi,HIMUDA Complex Phase, HPPCB,26-12-2023 22:00,30.943887,76.801991,PM2.5,170,481,331
194,India,Himachal Pradesh,Baddi,HIMUDA Complex Phase, HPPCB,26-12-2023 22:00,30.943887,76.801991,OZONE,9,137,78
195,India,Jharkhand,Dhanbad,Kalakusuma, DMC,26-12-2023 22:00,23.811548,86.481238,PM10,46,272,122
196,India,Jharkhand,Dhanbad,Kalakusuma, DMC,26-12-2023 22:00,23.811548,86.481238,CO,106,114,113
197,India,Jharkhand,Pathardih,Mohalbani Ghat, JSPCB,26-12-2023 22:00,23.66988,86.411725,SO2,15,42,26
198,India,Jharkhand,Pathardih,Mohalbani Ghat, JSPCB,26-12-2023 22:00,23.66988,86.411725,OZONE,15,18,16
199,India,Kar0taka,Bagalkot,Vidayagiri, KSPCB,26-12-2023 22:00,16.172806,75.659694,PM10,54,55,54
200,India,Kar0taka,Belgaum,Ramteerth 0gar, KSPCB,26-12-2023 22:00,15.888653,74.541751,PM10,45,108,69
201,India,Kar0taka,Bengaluru,Hebbal, KSPCB,26-12-2023 22:00,13.029152,77.585901,NO2,0,0,0
202,India,Kar0taka,Bengaluru,Hebbal, KSPCB,26-12-2023 22:00,13.029152,77.585901,NH3,0,0,0
203,India,Kar0taka,Bengaluru,Jigani, KSPCB,26-12-2023 22:00,12.7816279,77.6299145,NH3,1,4,2
204,India,Kar0taka,Bengaluru,Jigani, KSPCB,26-12-2023 22:00,12.7816279,77.6299145,CO,39,70,55
205,India,Kar0taka,Bengaluru,Kasturi 0gar, KSPCB,26-12-2023 22:00,13.003872,77.664217,SO2,8,8,8
206,India,Kar0taka,Bengaluru,Peenya, CPCB,26-12-2023 22:00,13.0270199,77.494094,PM2.5,26,188,59
207,India,Kar0taka,Bengaluru,Peenya, CPCB,26-12-2023 22:00,13.0270199,77.494094,SO2,12,18,15
208,India,Kar0taka,Bengaluru,RVCE, KSPCB,26-12-2023 22:00,12.921418,77.502466,PM2.5,58,84,74
209,India,Kar0taka,Bengaluru,RVCE, KSPCB,26-12-2023 22:00,12.921418,77.502466,NO2,31,31,31
210,India,Kar0taka,Bengaluru,Sanegurava Halli, KSPCB,26-12-2023 22:00,12.990328,77.5431385,CO,20,38,27
211,India,Kar0taka,Bengaluru,Shivapura_Peenya, KSPCB,26-12-2023 22:00,13.0246342,77.5080115,NH3,4,4,4
212,India,Kar0taka,Chamaraja0gar,Urban, KSPCB,26-12-2023 22:00,11.55358,76.55521,NO2,24,29,29
213,India,Kar0taka,Chamaraja0gar,Urban, KSPCB,26-12-2023 22:00,11.55358,76.55521,SO2,2,8,5
214,India,Kar0taka,Chikkaballapur,Chikkaballapur Rural, KSPCB,26-12-2023 22:00,13.428828,77.731418,NO2,8,18,11
215,India,Kar0taka,Chikkaballapur,Chikkaballapur Rural, KSPCB,26-12-2023 22:00,13.428828,77.731418,OZONE,24,25,25
216,India,Kar0taka,Chikkamagaluru,Kalya0 0gara, KSPCB,26-12-2023 22:00,13.328028,75.797056,NH3,3,5,4
217,India,Kar0taka,Dava0gere,Devaraj Urs Badavane, KSPCB,26-12-2023 22:00,14.4758,75.9052,CO,12,24,18
218,India,Kar0taka,Hubballi,Lingaraj 0gar, KSPCB,26-12-2023 22:00,15.3714823,75.1160168,PM10,63,73,66
219,India,Kar0taka,Hubballi,Lingaraj 0gar, KSPCB,26-12-2023 22:00,15.3714823,75.1160168,SO2,1,5,2
220,India,Kar0taka,Kalaburagi,Lal Bahadur Shastri 0gar, KSPCB,26-12-2023 22:00,17.321993,76.822628,NO2,11,12,11
221,India,Kar0taka,Kalaburagi,Lal Bahadur Shastri 0gar, KSPCB,26-12-2023 22:00,17.321993,76.822628,OZONE,1,62,62
222,India,Kar0taka,Kalaburagi,Mahatma Basaveswar Colony, KSPCB,26-12-2023 22:00,17.336318,76.847397,CO,36,101,62
223,India,Kar0taka,Karwar,KHB Colony, KSPCB,26-12-2023 22:00,14.816666,74.141003,SO2,18,18,18
224,India,Kar0taka,Karwar,KHB Colony, KSPCB,26-12-2023 22:00,14.816666,74.141003,CO,1,156,64
225,India,Kar0taka,Kolar,Tamaka Ind. Area, KSPCB,26-12-2023 22:00,13.1276288,78.1570122,OZONE,19,54,46
226,India,Kar0taka,Koppal,Diwator 0gar, KSPCB,26-12-2023 22:00,15.34763,76.181767,CO,74,104,84
227,India,Kar0taka,Koppal,Diwator 0gar, KSPCB,26-12-2023 22:00,15.34763,76.181767,OZONE,20,69,53
228,India,Kar0taka,Madikeri,Stuart Hill, KSPCB,26-12-2023 22:00,12.415911,75.73505,PM10,21,89,39
229,India,Kar0taka,Madikeri,Stuart Hill, KSPCB,26-12-2023 22:00,12.415911,75.73505,SO2,4,4,4
230,India,Kar0taka,Mangalore,Kadri, KSPCB,26-12-2023 22:00,12.88925,74.853,CO,44,54,51
231,India,Kar0taka,Mysuru,Hebbal 1st Stage, KSPCB,26-12-2023 22:00,12.21041,76.37376,NO2,10,55,29
232,India,Kar0taka,Raichur,Haji Colony, KSPCB,26-12-2023 22:00,16.208139,77.348417,PM2.5,30,71,42
233,India,Kar0taka,Rama0gara,Vijay 0gar, KSPCB,26-12-2023 22:00,12.733409,77.298051,PM10,24,67,42
234,India,Kar0taka,Shivamogga,Vinoba 0gara, KSPCB,26-12-2023 22:00,13.94,75.555917,PM10,41,56,48
235,India,Kar0taka,Shivamogga,Vinoba 0gara, KSPCB,26-12-2023 22:00,13.94,75.555917,OZONE,36,70,59
236,India,Kar0taka,Tumakuru,Thimmalapura, KSPCB,26-12-2023 22:00,13.377516,77.099072,PM10,76,177,131
237,India,Kar0taka,Tumakuru,Thimmalapura, KSPCB,26-12-2023 22:00,13.377516,77.099072,CO,28,67,37
238,India,Kar0taka,Vijayapura,Ibrahimpur, KSPCB,26-12-2023 22:00,16.802639,75.722694,OZONE,16,20,19
239,India,Kerala,Eloor,Udyogamandal, Kerala PCB,26-12-2023 22:00,10.073232,76.302765,PM10,25,27,26
240,India,Kerala,Eloor,Udyogamandal, Kerala PCB,26-12-2023 22:00,10.073232,76.302765,NO2,5,6,5
241,India,Kerala,Kochi,Vyttila, Kerala PCB,26-12-2023 22:00,9.969447,76.321186,CO,48,59,53
242,India,Kerala,Kollam,Polayathode, Kerala PCB,26-12-2023 22:00,8.8787,76.6073,PM2.5,16,163,83
243,India,Kerala,Thiruva0nthapuram,Kariavattom, Kerala PCB,26-12-2023 22:00,8.5637,76.8865,NO2,8,9,9
244,India,Kerala,Thiruva0nthapuram,Plammoodu, Kerala PCB,26-12-2023 22:00,8.5149093,76.9435879,CO,16,70,52
245,India,Kerala,Thrissur,Corporation Ground, Kerala PCB,26-12-2023 22:00,10.5324,76.2159,NH3,1,1,1
246,India,Kerala,Thrissur,Corporation Ground, Kerala PCB,26-12-2023 22:00,10.5324,76.2159,OZONE,23,30,28
247,India,Madhya Pradesh,Bhopal,T T 0gar, MPPCB,26-12-2023 22:00,23.233584,77.400574,SO2,10,48,28
248,India,Madhya Pradesh,Bhopal,T T 0gar, MPPCB,26-12-2023 22:00,23.233584,77.400574,OZONE,9,173,94
249,India,Madhya Pradesh,Damoh,Shrivastav Colony, MPPCB,26-12-2023 22:00,23.81748678,79.446246,PM2.5,28,93,48
250,India,Madhya Pradesh,Damoh,Shrivastav Colony, MPPCB,26-12-2023 22:00,23.81748678,79.446246,PM10,40,179,85
251,India,Madhya Pradesh,Gwalior,City Center, MPPCB,26-12-2023 22:00,26.203442,78.193251,NH3,7,14,10
252,India,Madhya Pradesh,Gwalior,Maharaj Bada, MPPCB,26-12-2023 22:00,26.200388,78.147714,PM2.5,96,457,267
253,India,Madhya Pradesh,Gwalior,Maharaj Bada, MPPCB,26-12-2023 22:00,26.200388,78.147714,SO2,14,27,20
254,India,Madhya Pradesh,Gwalior,Phool Bagh, Mondelez Ind. Food,26-12-2023 22:00,26.210536,78.171,SO2,11,22,14
255,India,Madhya Pradesh,Gwalior,Phool Bagh, Mondelez Ind. Food,26-12-2023 22:00,26.210536,78.171,CO,34,68,48
256,India,Madhya Pradesh,Indore,Chhoti Gwaltoli, MPPCB,26-12-2023 22:00,22.431,75.5213,PM10,109,338,180
257,India,Madhya Pradesh,Indore,Maguda 0gar, IMC,26-12-2023 22:00,22.7524,75.8872,PM2.5,0,0,0
258,India,Madhya Pradesh,Indore,Maguda 0gar, IMC,26-12-2023 22:00,22.7524,75.8872,SO2,0,0,0
259,India,Madhya Pradesh,Indore,Maguda 0gar, IMC,26-12-2023 22:00,22.7524,75.8872,OZONE,38,41,40
260,India,Madhya Pradesh,Indore,Regio0l Park, IMC,26-12-2023 22:00,22.678,75.8559,CO,18,50,24
261,India,Madhya Pradesh,Jabalpur,Gupteshwar, JMC,26-12-2023 22:00,23.142888,79.916147,PM2.5,63,319,145
262,India,Madhya Pradesh,Jabalpur,Marhatal, MPPCB,26-12-2023 22:00,23.168606,79.932247,PM10,99,247,153
263,India,Madhya Pradesh,Jabalpur,Marhatal, MPPCB,26-12-2023 22:00,23.168606,79.932247,NO2,43,132,76
264,India,Madhya Pradesh,Katni,Gole Bazar, MPPCB,26-12-2023 22:00,23.50016,80.23284,NO2,4,150,59
265,India,Madhya Pradesh,Maihar,Sahilara, KJS Cements,26-12-2023 22:00,24.2613009,80.7231783,SO2,11,13,12
266,India,Madhya Pradesh,Maihar,Sahilara, KJS Cements,26-12-2023 22:00,24.2613009,80.7231783,CO,22,55,34
267,India,Madhya Pradesh,Pithampur,Sector, MPPCB,26-12-2023 22:00,22.624758,75.675238,SO2,14,18,16
268,India,Madhya Pradesh,Ratlam,Shasthri 0gar, IPCA Lab,26-12-2023 22:00,23.331731,75.045981,PM2.5,104,253,174
269,India,Madhya Pradesh,Ratlam,Shasthri 0gar, IPCA Lab,26-12-2023 22:00,23.331731,75.045981,NO2,9,94,39
270,India,Madhya Pradesh,Sagar,Civil Lines, MPPCB,26-12-2023 22:00,23.838586,78.759431,NH3,5,10,7
271,India,Madhya Pradesh,Sagar,Civil Lines, MPPCB,26-12-2023 22:00,23.838586,78.759431,SO2,3,5,4
272,India,Madhya Pradesh,Sagar,Deen Dayal 0gar, MPPCB,26-12-2023 22:00,23.8640158,78.80289321,PM2.5,45,182,85
273,India,Madhya Pradesh,Sagar,Deen Dayal 0gar, MPPCB,26-12-2023 22:00,23.8640158,78.80289321,PM10,57,134,104
274,India,Madhya Pradesh,Sagar,Deen Dayal 0gar, MPPCB,26-12-2023 22:00,23.8640158,78.80289321,CO,3,129,49
275,India,Madhya Pradesh,Ujjain,Mahakaleshwar Temple, MPPCB,26-12-2023 22:00,23.182719,75.768218,PM2.5,159,361,296
276,India,Madhya Pradesh,Ujjain,Mahakaleshwar Temple, MPPCB,26-12-2023 22:00,23.182719,75.768218,OZONE,5,57,37
277,India,Maharashtra,Akola,Ramdaspeth, MPCB,26-12-2023 22:00,20.719516,77.000253,PM2.5,90,308,171
278,India,Maharashtra,Akola,Ramdaspeth, MPCB,26-12-2023 22:00,20.719516,77.000253,SO2,3,18,10
279,India,Maharashtra,Akola,Ramdaspeth, MPCB,26-12-2023 22:00,20.719516,77.000253,OZONE,5,89,50
280,India,Maharashtra,Amravati,Shivneri Colony, MPCB,26-12-2023 22:00,20.9402359,77.7895248,NH3,2,4,3
281,India,Maharashtra,Amravati,Shivneri Colony, MPCB,26-12-2023 22:00,20.9402359,77.7895248,CO,18,62,42
282,India,Maharashtra,Amravati,Shivneri Colony, MPCB,26-12-2023 22:00,20.9402359,77.7895248,OZONE,10,177,96
283,India,Maharashtra,Amravati,Shri Shivaji Science College, MPCB,26-12-2023 22:00,20.939198,77.765701,SO2,33,77,51
284,India,Maharashtra,Aurangabad,MIDC Chilkaltha0, MPCB,26-12-2023 22:00,19.87562,75.38731,NO2,10,157,66
285,India,Maharashtra,Aurangabad,MIDC Chilkaltha0, MPCB,26-12-2023 22:00,19.87562,75.38731,NH3,3,4,4
286,India,Maharashtra,Aurangabad,MIDC Chilkaltha0, MPCB,26-12-2023 22:00,19.87562,75.38731,OZONE,8,38,31
287,India,Maharashtra,Aurangabad,More Chowk Waluj, MPCB,26-12-2023 22:00,19.8389439,75.244448,PM10,132,237,168
288,India,Maharashtra,Aurangabad,More Chowk Waluj, MPCB,26-12-2023 22:00,19.8389439,75.244448,NO2,31,34,32
289,India,Maharashtra,Aurangabad,More Chowk Waluj, MPCB,26-12-2023 22:00,19.8389439,75.244448,SO2,10,12,11
290,India,Maharashtra,Badlapur,Katrap, MPCB,26-12-2023 22:00,19.16485,73.23409,NO2,44,108,62
291,India,Maharashtra,Belapur,CBD Belapur, MPCB,26-12-2023 22:00,19.0243902,73.0406721,NH3,0,0,0
292,India,Maharashtra,Bhiwandi,Gokul 0gar, MPCB,26-12-2023 22:00,19.309073,73.057223,NO2,42,129,75
293,India,Maharashtra,Bhiwandi,Gokul 0gar, MPCB,26-12-2023 22:00,19.309073,73.057223,SO2,7,33,15
294,India,Maharashtra,Bhiwandi,Gokul 0gar, MPCB,26-12-2023 22:00,19.309073,73.057223,CO,27,100,49
295,India,Maharashtra,Jal0,Old MIDC, MPCB,26-12-2023 22:00,19.854616,75.905894,PM10,131,356,184
296,India,Maharashtra,Kalyan,Khadakpada, MPCB,26-12-2023 22:00,19.25292,73.142019,NO2,18,193,50
297,India,Maharashtra,Kalyan,Khadakpada, MPCB,26-12-2023 22:00,19.25292,73.142019,OZONE,7,36,22
298,India,Maharashtra,Kolhapur,Shivaji University, MPCB,26-12-2023 22:00,16.6870449,74.2505872,CO,12,84,38
299,India,Maharashtra,Kolhapur,Sinchan Bhavan, MPCB,26-12-2023 22:00,16.7143745,74.2426398,PM10,126,422,215
300,India,Maharashtra,Latur,Sawe Wadi, MPCB,26-12-2023 22:00,18.39963,76.57452,PM2.5,115,343,200
301,India,Maharashtra,Mahad,Kamble Tarf Birwadi, MPCB,26-12-2023 22:00,18.1023399,73.4783687,NO2,13,58,28
302,India,Maharashtra,Malegaon,Mahesh 0gar, MPCB,26-12-2023 22:00,20.555712,74.529236,SO2,5,15,9
303,India,Maharashtra,Malegaon,Mahesh 0gar, MPCB,26-12-2023 22:00,20.555712,74.529236,CO,5,95,28
304,India,Maharashtra,Mira-Bhayandar,Bhayandar West, MPCB,26-12-2023 22:00,19.296481,72.840923,PM2.5,105,235,156
305,India,Maharashtra,Mumbai,Bandra Kurla Complex, IITM,26-12-2023 22:00,19.053536,72.84643,PM10,121,195,163
306,India,Maharashtra,Mumbai,Bandra Kurla Complex, IITM,26-12-2023 22:00,19.053536,72.84643,CO,12,104,97
307,India,Maharashtra,Mumbai,Bandra Kurla Complex, MPCB,26-12-2023 22:00,19.065931,72.862131,PM2.5,102,308,214
308,India,Maharashtra,Mumbai,Bandra Kurla Complex, MPCB,26-12-2023 22:00,19.065931,72.862131,PM10,127,354,191
309,India,Maharashtra,Mumbai,Borivali East, IITM,26-12-2023 22:00,19.23241,72.86895,CO,41,100,57
310,India,Maharashtra,Mumbai,Borivali East, IITM,26-12-2023 22:00,19.23241,72.86895,OZONE,11,240,127
311,India,Maharashtra,Mumbai,Borivali East, MPCB,26-12-2023 22:00,19.2243333,72.8658113,PM10,64,160,95
312,India,Maharashtra,Mumbai,Borivali East, MPCB,26-12-2023 22:00,19.2243333,72.8658113,SO2,7,9,8
313,India,Maharashtra,Mumbai,Borivali East, MPCB,26-12-2023 22:00,19.2243333,72.8658113,CO,2,105,30
314,India,Maharashtra,Mumbai,Borivali East, MPCB,26-12-2023 22:00,19.2243333,72.8658113,OZONE,4,9,5
315,India,Maharashtra,Mumbai,Byculla, BMC,26-12-2023 22:00,18.9767,72.838,NO2,25,62,41
316,India,Maharashtra,Mumbai,Chembur, MPCB,26-12-2023 22:00,19.0364585,72.8954371,PM2.5,128,244,187
317,India,Maharashtra,Mumbai,Chembur, MPCB,26-12-2023 22:00,19.0364585,72.8954371,SO2,8,30,14
318,India,Maharashtra,Mumbai,Chhatrapati Shivaji Intl. Airport (T2), MPCB,26-12-2023 22:00,19.10078,72.87462,PM2.5,30,85,59
319,India,Maharashtra,Mumbai,Chhatrapati Shivaji Intl. Airport (T2), MPCB,26-12-2023 22:00,19.10078,72.87462,OZONE,1,40,25
320,India,Maharashtra,Mumbai,Colaba, MPCB,26-12-2023 22:00,18.91,72.82,NO2,20,43,29
321,India,Maharashtra,Mumbai,Colaba, MPCB,26-12-2023 22:00,18.91,72.82,NH3,1,1,1
322,India,Maharashtra,Mumbai,Colaba, MPCB,26-12-2023 22:00,18.91,72.82,OZONE,2,11,4
323,India,Maharashtra,Mumbai,Ghatkopar, BMC,26-12-2023 22:00,19.083694,72.920967,NO2,26,37,33
324,India,Maharashtra,Mumbai,Kandivali East, MPCB,26-12-2023 22:00,19.2058,72.8682,PM2.5,18,73,50
325,India,Maharashtra,Mumbai,Kandivali East, MPCB,26-12-2023 22:00,19.2058,72.8682,NH3,7,12,9
326,India,Maharashtra,Mumbai,Kandivali East, MPCB,26-12-2023 22:00,19.2058,72.8682,CO,63,104,85
327,India,Maharashtra,Mumbai,Kandivali East, MPCB,26-12-2023 22:00,19.2058,72.8682,OZONE,2,3,2
328,India,Maharashtra,Mumbai,Kandivali West, BMC,26-12-2023 22:00,19.215859,72.831718,PM10,152,296,214
329,India,Maharashtra,Mumbai,Kandivali West, BMC,26-12-2023 22:00,19.215859,72.831718,NH3,1,8,4
330,India,Maharashtra,Mumbai,Kandivali West, BMC,26-12-2023 22:00,19.215859,72.831718,CO,39,98,49
331,India,Maharashtra,Mumbai,Kherwadi_Bandra East, MPCB,26-12-2023 22:00,19.0632143,72.8456324,PM10,124,223,161
332,India,Maharashtra,Mumbai,Kherwadi_Bandra East, MPCB,26-12-2023 22:00,19.0632143,72.8456324,CO,30,139,41
333,India,Maharashtra,Mumbai,Khindipada, IITM,26-12-2023 22:00,19.1653323,72.922099,OZONE,33,173,94
334,India,Maharashtra,Mumbai,Kurla, MPCB,26-12-2023 22:00,19.0863,72.8888,CO,49,90,53
335,India,Maharashtra,Mumbai,Mazgaon, IITM,26-12-2023 22:00,18.96702,72.84214,CO,4,66,39
336,India,Maharashtra,Mumbai,Mulund West, MPCB,26-12-2023 22:00,19.175,72.9419,NO2,25,35,30
337,India,Maharashtra,Mumbai,0vy 0gar, IITM,26-12-2023 22:00,18.897756,72.81332,PM2.5,101,268,194
338,India,Maharashtra,Mumbai,0vy 0gar, IITM,26-12-2023 22:00,18.897756,72.81332,NH3,2,15,9
339,India,Maharashtra,Mumbai,Powai, MPCB,26-12-2023 22:00,19.1375,72.915056,OZONE,25,80,53
340,India,Maharashtra,Mumbai,Sewri, BMC,26-12-2023 22:00,19.000084,72.85673,PM2.5,148,301,244
341,India,Maharashtra,Mumbai,Sewri, BMC,26-12-2023 22:00,19.000084,72.85673,PM10,125,217,166
342,India,Maharashtra,Mumbai,Sewri, BMC,26-12-2023 22:00,19.000084,72.85673,OZONE,1,300,200
343,India,Maharashtra,Mumbai,Shivaji 0gar, BMC,26-12-2023 22:00,19.060498,72.923356,OZONE,1,307,167
344,India,Maharashtra,Mumbai,Siddharth 0gar, IITM,26-12-2023 22:00,19.000083,72.813993,NO2,28,120,60
345,India,Maharashtra,Mumbai,Siddharth 0gar, IITM,26-12-2023 22:00,19.000083,72.813993,OZONE,13,171,131
346,India,Maharashtra,Mumbai,Sion, MPCB,26-12-2023 22:00,19.047,72.8746,CO,23,104,45
347,India,Maharashtra,Mumbai,Vasai West, MPCB,26-12-2023 22:00,19.3832,72.8204,NO2,26,29,27
348,India,Maharashtra,Mumbai,Vasai West, MPCB,26-12-2023 22:00,19.3832,72.8204,CO,45,76,58
349,India,Maharashtra,Mumbai,Vasai West, MPCB,26-12-2023 22:00,19.3832,72.8204,OZONE,7,77,47
350,India,Maharashtra,Mumbai,Vile Parle West, MPCB,26-12-2023 22:00,19.10861,72.83622,PM10,0,0,0
351,India,Maharashtra,Mumbai,Vile Parle West, MPCB,26-12-2023 22:00,19.10861,72.83622,OZONE,3,4,4
352,India,Maharashtra,Mumbai,Worli, MPCB,26-12-2023 22:00,18.9936162,72.8128113,NO2,16,18,18
353,India,Maharashtra,0gpur,Opp GPO Civil Lines, MPCB,26-12-2023 22:00,21.152875,79.0517531,CO,42,144,101
354,India,Maharashtra,0gpur,Ram 0gar, MPCB,26-12-2023 22:00,21.143383,79.048912,SO2,11,36,22
355,India,Maharashtra,0gpur,Ram 0gar, MPCB,26-12-2023 22:00,21.143383,79.048912,OZONE,2,128,76
356,India,Maharashtra,0shik,Hirawadi, MPCB,26-12-2023 22:00,20.021503,73.813844,OZONE,18,139,83
357,India,Maharashtra,0shik,Pandav 0gari, MPCB,26-12-2023 22:00,19.9591346,73.7788008,PM2.5,118,284,186
358,India,Maharashtra,0shik,Pandav 0gari, MPCB,26-12-2023 22:00,19.9591346,73.7788008,SO2,5,9,8
359,India,Maharashtra,0vi Mumbai,Kopripada, MPCB,26-12-2023 22:00,19.090337,73.014232,PM10,109,285,151
360,India,Maharashtra,0vi Mumbai,Kopripada, MPCB,26-12-2023 22:00,19.090337,73.014232,CO,33,113,69
361,India,Maharashtra,0vi Mumbai,Mahape, MPCB,26-12-2023 22:00,19.1135051,73.008978,NH3,3,3,3
362,India,Maharashtra,0vi Mumbai,Mahape, MPCB,26-12-2023 22:00,19.1135051,73.008978,CO,28,57,41
363,India,Maharashtra,0vi Mumbai,Nerul, MPCB,26-12-2023 22:00,19.008751,73.01662,SO2,24,26,25
364,India,Maharashtra,0vi Mumbai,Sanpada, MPCB,26-12-2023 22:00,19.0575752,73.0151367,NO2,5,27,18
365,India,Maharashtra,0vi Mumbai,Sector, MPCB,26-12-2023 22:00,19.02579,73.10297,SO2,1,43,14
366,India,Maharashtra,0vi Mumbai,Tondare, MPCB,26-12-2023 22:00,19.063,73.1209,NO2,32,122,80
367,India,Maharashtra,0vi Mumbai,Tondare, MPCB,26-12-2023 22:00,19.063,73.1209,SO2,85,124,101
368,India,Maharashtra,Parbhani,Masoom Colony, MPCB,26-12-2023 22:00,19.265594,76.761463,OZONE,4,93,68
369,India,Maharashtra,Pimpri-Chinchwad,Gavali0gar, MPCB,26-12-2023 22:00,18.63673,73.82487,NH3,5,9,7
370,India,Maharashtra,Pimpri-Chinchwad,Gavali0gar, MPCB,26-12-2023 22:00,18.63673,73.82487,SO2,5,24,13
371,India,Maharashtra,Pimpri-Chinchwad,Park Street Wakad, MPCB,26-12-2023 22:00,18.59051,73.77946,PM10,114,297,217
372,India,Maharashtra,Pimpri-Chinchwad,Park Street Wakad, MPCB,26-12-2023 22:00,18.59051,73.77946,CO,22,143,68
373,India,Maharashtra,Pimpri-Chinchwad,Thergaon, MPCB,26-12-2023 22:00,18.616318,73.765797,PM10,100,287,188
374,India,Maharashtra,Pune,Bhosari, IITM,26-12-2023 22:00,18.640051,73.848956,CO,22,43,27
375,India,Maharashtra,Pune,Karve Road, MPCB,26-12-2023 22:00,18.5011743,73.8165527,NO2,2,2,2
376,India,Maharashtra,Pune,Karve Road, MPCB,26-12-2023 22:00,18.5011743,73.8165527,OZONE,1,8,3
377,India,Maharashtra,Pune,Savitribai Phule Pune University, MPCB,26-12-2023 22:00,18.547056,73.826908,SO2,2,7,4
378,India,Maharashtra,Sangli,Vijay 0gar, MPCB,26-12-2023 22:00,16.5038,74.3623,PM10,80,178,127
379,India,Maharashtra,Sangli,Vijay 0gar, MPCB,26-12-2023 22:00,16.5038,74.3623,NO2,21,90,42
380,India,Maharashtra,Sangli,Vijay 0gar, MPCB,26-12-2023 22:00,16.5038,74.3623,SO2,3,36,10
381,India,Maharashtra,Solapur,Dnyaneshwar 0gar, MPCB,26-12-2023 22:00,17.6336264,75.9132495,NO2,16,179,59
382,India,Maharashtra,Solapur,Dnyaneshwar 0gar, MPCB,26-12-2023 22:00,17.6336264,75.9132495,NH3,15,69,30
383,India,Maharashtra,Solapur,Ratandeep Housing Society, MPCB,26-12-2023 22:00,17.65439,75.90649,CO,22,173,87
384,India,Maharashtra,Solapur,Solapur, MPCB,26-12-2023 22:00,17.6599188,75.9063906,PM2.5,30,57,40
385,India,Maharashtra,Thane,Kasarvadavali, MPCB,26-12-2023 22:00,19.26777,72.97182,PM2.5,0,0,0
386,India,Maharashtra,Thane,Pimpleshwar Mandir, MPCB,26-12-2023 22:00,19.192056,72.9585188,NO2,2,82,28
387,India,Maharashtra,Thane,Upvan Fort, MPCB,26-12-2023 22:00,19.222279,72.957979,OZONE,60,245,166
388,India,Maharashtra,Virar,Bolinj, MPCB,26-12-2023 22:00,19.445821,72.7988231,NO2,16,107,41
389,India,Maharashtra,Virar,Bolinj, MPCB,26-12-2023 22:00,19.445821,72.7988231,NH3,2,15,7
390,India,Manipur,Imphal,DM College of Science, Manipur PCB,26-12-2023 22:00,24.8207389,93.9423085,PM2.5,7,90,24
391,India,Manipur,Imphal,DM College of Science, Manipur PCB,26-12-2023 22:00,24.8207389,93.9423085,PM10,9,97,32
392,India,Manipur,Imphal,DM College of Science, Manipur PCB,26-12-2023 22:00,24.8207389,93.9423085,NO2,8,8,8
393,India,Meghalaya,Shillong,JN Stadium, Meghalaya PCB,26-12-2023 22:00,25.5803419,91.8942571,CO,15,106,56
394,India,Meghalaya,Shillong,Lumpyngngad, Meghalaya PCB,26-12-2023 22:00,25.5586,91.8985,CO,6,20,12
395,India,Meghalaya,Shillong,Lumpyngngad, Meghalaya PCB,26-12-2023 22:00,25.5586,91.8985,OZONE,47,87,60
396,India,0galand,Kohima,PWD Juction, NPCB,26-12-2023 22:00,25.6635413,94.0989878,OZONE,9,12,10
397,India,Odisha,Balasore,Kalidaspur, OSPCB,26-12-2023 22:00,21.51161,86.89088,PM10,107,495,210
398,India,Odisha,Balasore,Kalidaspur, OSPCB,26-12-2023 22:00,21.51161,86.89088,SO2,16,36,24
399,India,Odisha,Balasore,Kalidaspur, OSPCB,26-12-2023 22:00,21.51161,86.89088,CO,46,120,107
400,India,Odisha,Barbil,Forest Office, OSPCB,26-12-2023 22:00,22.1166054,85.3945546,CO,44,105,61
401,India,Odisha,Baripada,Meher Colony, OSPCB,26-12-2023 22:00,21.941841,86.728318,PM10,87,135,105
402,India,Odisha,Bhubaneswar,Lingraj Mandir, OSPCB,26-12-2023 22:00,20.24079,85.836784,CO,34,94,46
403,India,Odisha,Bhubaneswar,Patia, OSPCB,26-12-2023 22:00,20.34652,85.8163,NO2,14,92,42
404,India,Odisha,Bhubaneswar,Patia, OSPCB,26-12-2023 22:00,20.34652,85.8163,SO2,3,22,10
405,India,Odisha,Byasa0gar,Ferro Chrome Colony, OSPCB,26-12-2023 22:00,20.94185,86.1151,PM2.5,83,322,156
406,India,Odisha,Byasa0gar,Ferro Chrome Colony, OSPCB,26-12-2023 22:00,20.94185,86.1151,NO2,12,32,19
407,India,Odisha,Cuttack,CDA Area, OSPCB,26-12-2023 22:00,20.48891,85.84768,PM2.5,133,322,247
408,India,Odisha,Cuttack,CDA Area, OSPCB,26-12-2023 22:00,20.48891,85.84768,CO,35,92,56
409,India,Odisha,Keonjhar,Jagamohanpur, OSPCB,26-12-2023 22:00,21.6439,85.599355,NO2,16,85,54
410,India,Odisha,0yagarh,Dabu0, OSPCB,26-12-2023 22:00,21.847279,85.416905,PM2.5,96,237,150
411,India,Odisha,Rourkela,Fertilizer Township, OSPCB,26-12-2023 22:00,22.18972222,84.86277778,PM10,85,88,86
412,India,Odisha,Rourkela,Fertilizer Township, OSPCB,26-12-2023 22:00,22.18972222,84.86277778,NO2,14,22,18
413,India,Odisha,Rourkela,Raghu0thpali, OSPCB,26-12-2023 22:00,22.220833,84.809444,PM2.5,90,367,219
414,India,Odisha,Rourkela,Raghu0thpali, OSPCB,26-12-2023 22:00,22.220833,84.809444,NO2,12,111,33
415,India,Odisha,Rourkela,Raghu0thpali, OSPCB,26-12-2023 22:00,22.220833,84.809444,OZONE,5,81,43
416,India,Odisha,Rourkela,Sector, OSPCB,26-12-2023 22:00,22.245,84.88111111,PM10,63,163,101
417,India,Odisha,Suakati,OMC Colony, OSPCB,26-12-2023 22:00,21.606865,85.510538,SO2,4,21,11
418,India,Odisha,Suakati,OMC Colony, OSPCB,26-12-2023 22:00,21.606865,85.510538,CO,10,15,11
419,India,Odisha,Talcher,Talcher Coalfields, OSPCB,26-12-2023 22:00,20.9360711,85.1707021,SO2,36,115,65
420,India,Odisha,Tensa,Barsua Iron Ore Mines, OSPCB,26-12-2023 22:00,21.869985,85.167016,PM2.5,71,125,87
421,India,Punjab,Amritsar,Golden Temple, PPCB,26-12-2023 22:00,31.62,74.876512,PM10,52,277,133
422,India,Punjab,Amritsar,Golden Temple, PPCB,26-12-2023 22:00,31.62,74.876512,SO2,3,22,9
423,India,Punjab,Amritsar,Golden Temple, PPCB,26-12-2023 22:00,31.62,74.876512,CO,2,32,17
424,India,Punjab,Bathinda,Hardev 0gar, PPCB,26-12-2023 22:00,30.233011,74.907758,PM2.5,34,242,116
425,India,Punjab,Jalandhar,Civil Line, PPCB,26-12-2023 22:00,31.321907,75.578914,SO2,12,22,16
426,India,Punjab,Khan0,Kalal Majra, PPCB,26-12-2023 22:00,30.736056,76.209694,NO2,29,34,32
427,India,Punjab,Khan0,Kalal Majra, PPCB,26-12-2023 22:00,30.736056,76.209694,SO2,6,18,11
428,India,Punjab,Ludhia0,Punjab Agricultural University, PPCB,26-12-2023 22:00,30.9028,75.8086,PM2.5,57,390,219
429,India,Punjab,Ludhia0,Punjab Agricultural University, PPCB,26-12-2023 22:00,30.9028,75.8086,PM10,88,417,204
430,India,Punjab,Ludhia0,Punjab Agricultural University, PPCB,26-12-2023 22:00,30.9028,75.8086,NH3,5,10,8
431,India,Punjab,Mandi Gobindgarh,RIMT University, PPCB,26-12-2023 22:00,30.649961,76.331442,NH3,2,2,2
432,India,Punjab,Mandi Gobindgarh,RIMT University, PPCB,26-12-2023 22:00,30.649961,76.331442,CO,24,55,44
433,India,Punjab,Rup0gar,Ratanpura, Ambuja Cements,26-12-2023 22:00,31.0325454,76.5623046,PM10,90,203,140
434,India,Rajasthan,Ajmer,Civil Lines, RSPCB,26-12-2023 22:00,26.470859,74.646594,PM2.5,70,255,135
435,India,Rajasthan,Ajmer,Civil Lines, RSPCB,26-12-2023 22:00,26.470859,74.646594,CO,16,88,37
436,India,Rajasthan,Banswara,Rati Talai, RSPCB,26-12-2023 22:00,23.55519,74.44001,NO2,2,29,15
437,India,Rajasthan,Banswara,Rati Talai, RSPCB,26-12-2023 22:00,23.55519,74.44001,NH3,3,3,3
438,India,Rajasthan,Banswara,Rati Talai, RSPCB,26-12-2023 22:00,23.55519,74.44001,SO2,1,20,10
439,India,Rajasthan,Banswara,Rati Talai, RSPCB,26-12-2023 22:00,23.55519,74.44001,CO,43,111,72
440,India,Rajasthan,Baran,Bamboliya, RSPCB,26-12-2023 22:00,25.106006,76.469948,PM2.5,67,371,232
441,India,Rajasthan,Baran,Bamboliya, RSPCB,26-12-2023 22:00,25.106006,76.469948,NH3,4,8,5
442,India,Rajasthan,Baran,Bamboliya, RSPCB,26-12-2023 22:00,25.106006,76.469948,CO,36,74,44
443,India,Rajasthan,Barmer,Railway Colony, RSPCB,26-12-2023 22:00,25.747299,71.393989,PM10,106,406,146
444,India,Rajasthan,Bharatpur,Krish0 0gar, RSPCB,26-12-2023 22:00,27.215415,77.50873,NO2,0,0,0
445,India,Rajasthan,Bharatpur,Krish0 0gar, RSPCB,26-12-2023 22:00,27.215415,77.50873,SO2,0,0,0
446,India,Rajasthan,Bhilwara,Pratap 0gar, RSPCB,26-12-2023 22:00,25.339605,74.618883,NH3,6,9,7
447,India,Rajasthan,Bikaner,MM Ground, RSPCB,26-12-2023 22:00,28.018792,73.292658,NH3,14,19,16
448,India,Rajasthan,Bikaner,MM Ground, RSPCB,26-12-2023 22:00,28.018792,73.292658,CO,26,130,95
449,India,Rajasthan,Bikaner,MM Ground, RSPCB,26-12-2023 22:00,28.018792,73.292658,OZONE,1,56,33
450,India,Rajasthan,Bundi,New Colony, RSPCB,26-12-2023 22:00,25.435774,75.644272,PM10,134,389,209
451,India,Rajasthan,Bundi,New Colony, RSPCB,26-12-2023 22:00,25.435774,75.644272,NH3,5,5,5
452,India,Rajasthan,Churu,Subash Chowk, RSPCB,26-12-2023 22:00,28.296139,74.961696,CO,14,82,30
453,India,Rajasthan,Dungarpur,Bhoiwada, RSPCB,26-12-2023 22:00,23.837789,73.714926,CO,39,83,53
454,India,Rajasthan,Jaipur,Mansarovar Sector, RSPCB,26-12-2023 22:00,26.843698,75.766894,CO,26,132,68
455,India,Rajasthan,Jaipur,Mansarovar Sector, RSPCB,26-12-2023 22:00,26.843698,75.766894,OZONE,1,83,37
456,India,Rajasthan,Jaipur,Police Commissionerate, RSPCB,26-12-2023 22:00,26.9164092,75.7994901,PM10,110,422,271
457,India,Rajasthan,Jaipur,RIICO Sitapura, RSPCB,26-12-2023 22:00,26.786682,75.827928,NO2,0,0,0
458,India,Rajasthan,Jaipur,RIICO Sitapura, RSPCB,26-12-2023 22:00,26.786682,75.827928,CO,28,126,58
459,India,Rajasthan,Jaipur,Shastri 0gar, RSPCB,26-12-2023 22:00,26.9502929,75.730943,NO2,34,159,94
460,India,Rajasthan,Jalore,Mudtra Sili, RSPCB,26-12-2023 22:00,25.344694,72.626208,PM10,122,464,225
461,India,Rajasthan,Jalore,Mudtra Sili, RSPCB,26-12-2023 22:00,25.344694,72.626208,NH3,8,14,11
462,India,Rajasthan,Jhalawar,Rajlaxmi 0gar, RSPCB,26-12-2023 22:00,24.588397,76.172782,NO2,13,89,29
463,India,Rajasthan,Jhunjhunu,Indra 0gar, RSPCB,26-12-2023 22:00,28.108988,75.386577,NH3,7,15,11
464,India,Rajasthan,Jhunjhunu,Indra 0gar, RSPCB,26-12-2023 22:00,28.108988,75.386577,OZONE,5,91,63
465,India,Rajasthan,Jodhpur,Digari Kalan, RSPCB,26-12-2023 22:00,26.29581,73.082283,CO,18,120,61
466,India,Rajasthan,Jodhpur,Digari Kalan, RSPCB,26-12-2023 22:00,26.29581,73.082283,OZONE,3,179,84
467,India,Rajasthan,Jodhpur,Jhalamand, RSPCB,26-12-2023 22:00,26.215415,73.070156,NO2,19,150,59
468,India,Rajasthan,Jodhpur,Jhalamand, RSPCB,26-12-2023 22:00,26.215415,73.070156,CO,26,106,58
469,India,Rajasthan,Jodhpur,Mandor, RSPCB,26-12-2023 22:00,26.358805,73.047444,PM2.5,190,351,288
470,India,Rajasthan,Jodhpur,Mandor, RSPCB,26-12-2023 22:00,26.358805,73.047444,NH3,8,18,10
471,India,Rajasthan,Jodhpur,Samrat Ashok Udhyan, RSPCB,26-12-2023 22:00,26.253384,72.976571,NO2,16,160,76
472,India,Rajasthan,Jodhpur,Samrat Ashok Udhyan, RSPCB,26-12-2023 22:00,26.253384,72.976571,SO2,5,35,12
473,India,Rajasthan,Karauli,Satyawati Vihar, RSPCB,26-12-2023 22:00,26.506177,77.025989,PM10,86,350,171
474,India,Rajasthan,Karauli,Satyawati Vihar, RSPCB,26-12-2023 22:00,26.506177,77.025989,NH3,7,9,8
475,India,Rajasthan,Kota,Dhanmandi, RSPCB,26-12-2023 22:00,25.16409,75.858137,PM2.5,322,500,397
476,India,Rajasthan,Kota,0yapura, RSPCB,26-12-2023 22:00,25.196024,75.855668,NH3,11,19,14
477,India,Rajasthan,Kota,0yapura, RSPCB,26-12-2023 22:00,25.196024,75.855668,SO2,10,29,16
478,India,Rajasthan,Kota,Shri0th Puram, RSPCB,26-12-2023 22:00,25.14389,75.821256,CO,18,59,37
479,India,Rajasthan,0gaur,Karni Colony, RSPCB,26-12-2023 22:00,27.213494,73.734444,PM2.5,94,356,213
480,India,Rajasthan,0gaur,Karni Colony, RSPCB,26-12-2023 22:00,27.213494,73.734444,NH3,11,15,13
481,India,Rajasthan,0gaur,Karni Colony, RSPCB,26-12-2023 22:00,27.213494,73.734444,CO,38,104,67
482,India,Rajasthan,0gaur,Karni Colony, RSPCB,26-12-2023 22:00,27.213494,73.734444,OZONE,14,69,50
483,India,Rajasthan,Pali,Indira Colony Vistar, RSPCB,26-12-2023 22:00,25.771061,73.340227,PM2.5,85,380,227
484,India,Rajasthan,Pali,Indira Colony Vistar, RSPCB,26-12-2023 22:00,25.771061,73.340227,PM10,110,218,144
485,India,Rajasthan,Pali,Indira Colony Vistar, RSPCB,26-12-2023 22:00,25.771061,73.340227,NO2,18,32,24
486,India,Rajasthan,Pali,Indira Colony Vistar, RSPCB,26-12-2023 22:00,25.771061,73.340227,OZONE,8,57,15
487,India,Rajasthan,Pratapgarh,Pragati 0gar, RSPCB,26-12-2023 22:00,24.041198,74.780702,NH3,5,9,6
488,India,Rajasthan,Sikar,Radhakishan Pura, RSPCB,26-12-2023 22:00,27.608912,75.153302,NO2,15,74,37
489,India,Rajasthan,Sri Ganga0gar,Old City, RSPCB,26-12-2023 22:00,29.931624,73.864511,PM2.5,45,494,274
490,India,Rajasthan,Sri Ganga0gar,Old City, RSPCB,26-12-2023 22:00,29.931624,73.864511,PM10,184,500,411
491,India,Rajasthan,Tonk,Shastri 0gar, RSPCB,26-12-2023 22:00,26.159933,75.780517,NH3,4,63,19
492,India,Rajasthan,Udaipur,Ashok 0gar, RSPCB,26-12-2023 22:00,24.5886166,73.6321397,PM10,133,340,194
493,India,Rajasthan,Udaipur,Ashok 0gar, RSPCB,26-12-2023 22:00,24.5886166,73.6321397,NH3,5,23,9
494,India,Tamil0du,Chengalpattu,Crescent University, TNPCB,26-12-2023 22:00,12.8777316,80.0834807,PM2.5,0,0,0
495,India,Tamil0du,Chengalpattu,Crescent University, TNPCB,26-12-2023 22:00,12.8777316,80.0834807,CO,24,29,26
496,India,Tamil0du,Chen0i,Alandur Bus Depot, CPCB,26-12-2023 22:00,12.9099161,80.1076538,NO2,30,138,51
497,India,Tamil0du,Chen0i,Arumbakkam, TNPCB,26-12-2023 22:00,13.0664,80.2112,PM2.5,49,161,75
498,India,Tamil0du,Chen0i,Gandhi 0gar_Ennore, TNPCB,26-12-2023 22:00,13.218341,80.32027,PM2.5,36,127,61
499,India,Tamil0du,Chen0i,Gandhi 0gar_Ennore, TNPCB,26-12-2023 22:00,13.218341,80.32027,PM10,39,116,65
500,India,Tamil0du,Chen0i,Kodungaiyur, TNPCB,26-12-2023 22:00,13.1278,80.2642,NH3,3,7,5
501,India,Tamil0du,Chen0i,Perungudi, TNPCB,26-12-2023 22:00,12.9533,80.2357,PM2.5,28,178,68
502,India,Tamil0du,Chen0i,Royapuram, TNPCB,26-12-2023 22:00,13.1036,80.2909,NH3,1,1,1
503,India,Tamil0du,Chen0i,Royapuram, TNPCB,26-12-2023 22:00,13.1036,80.2909,OZONE,9,10,9
504,India,Tamil0du,Coimbatore,PSG College of Arts and Science, TNPCB,26-12-2023 22:00,11.0328,77.0349,PM2.5,0,0,0
505,India,Tamil0du,Coimbatore,PSG College of Arts and Science, TNPCB,26-12-2023 22:00,11.0328,77.0349,NO2,0,0,0
506,India,Tamil0du,Coimbatore,PSG College of Arts and Science, TNPCB,26-12-2023 22:00,11.0328,77.0349,SO2,0,0,0
507,India,Tamil0du,Cuddalore,Kudikadu, TNPCB,26-12-2023 22:00,11.6829898,79.7532099,PM2.5,22,76,49
508,India,Tamil0du,Kanchipuram,Kilambi, TNPCB,26-12-2023 22:00,12.864618,79.659968,OZONE,3,3,3
509,India,Tamil0du,Rama0thapuram,Chalai Bazaar, TNPCB,26-12-2023 22:00,9.36399,78.831977,CO,2,10,5
510,India,Tamil0du,Tirupur,Kumaran College, TNPCB,26-12-2023 22:00,11.0973603,77.3228673,OZONE,7,7,7
511,India,Tamil0du,Vellore,Vasanthapuram, TNPCB,26-12-2023 22:00,12.909494,79.131861,PM10,0,0,0
512,India,Tamil0du,Vellore,Vasanthapuram, TNPCB,26-12-2023 22:00,12.909494,79.131861,SO2,14,17,15
513,India,Telanga0,Hyderabad,Central University, TSPCB,26-12-2023 22:00,17.460103,78.334361,NO2,14,59,33
514,India,Telanga0,Hyderabad,Central University, TSPCB,26-12-2023 22:00,17.460103,78.334361,CO,22,105,61
515,India,Telanga0,Hyderabad,ECIL Kapra, TSPCB,26-12-2023 22:00,17.470431,78.566959,PM10,70,107,83
516,India,Telanga0,Hyderabad,ECIL Kapra, TSPCB,26-12-2023 22:00,17.470431,78.566959,OZONE,6,64,41
517,India,Telanga0,Hyderabad,ICRISAT Patancheru, TSPCB,26-12-2023 22:00,17.5184,78.278777,PM2.5,72,182,136
518,India,Telanga0,Hyderabad,ICRISAT Patancheru, TSPCB,26-12-2023 22:00,17.5184,78.278777,SO2,1,16,3
519,India,Telanga0,Hyderabad,IITH Kandi, TSPCB,26-12-2023 22:00,17.585705,78.126199,CO,20,81,39
520,India,Telanga0,Hyderabad,Kokapet, TSPCB,26-12-2023 22:00,17.393559,78.339194,SO2,5,8,6
521,India,Telanga0,Hyderabad,Kokapet, TSPCB,26-12-2023 22:00,17.393559,78.339194,CO,12,18,14
522,India,Telanga0,Hyderabad,0charam_TSIIC IALA, TSPCB,26-12-2023 22:00,17.429398,78.569354,SO2,17,35,28
523,India,Telanga0,Hyderabad,0charam_TSIIC IALA, TSPCB,26-12-2023 22:00,17.429398,78.569354,OZONE,21,35,35
524,India,Telanga0,Hyderabad,Ramachandrapuram, TSPCB,26-12-2023 22:00,17.528544,78.286195,SO2,5,22,11
525,India,Telanga0,Hyderabad,Ramachandrapuram, TSPCB,26-12-2023 22:00,17.528544,78.286195,OZONE,1,53,18
526,India,Telanga0,Hyderabad,Sa0th0gar, TSPCB,26-12-2023 22:00,17.4559458,78.4332152,PM2.5,117,341,261
527,India,Telanga0,Hyderabad,Zoo Park, TSPCB,26-12-2023 22:00,17.349694,78.451437,NO2,31,59,45
528,India,Tripura,Agartala,Bardowali, Tripura SPCB,26-12-2023 22:00,23.8175497,91.2726974,CO,38,101,77
529,India,Tripura,Agartala,Bardowali, Tripura SPCB,26-12-2023 22:00,23.8175497,91.2726974,OZONE,1,11,3
530,India,Uttar_Pradesh,Agra,Manoharpur, UPPCB,26-12-2023 22:00,27.23711,78.01936,NO2,8,9,9
531,India,Uttar_Pradesh,Agra,Manoharpur, UPPCB,26-12-2023 22:00,27.23711,78.01936,OZONE,3,12,8
532,India,Uttar_Pradesh,Agra,Rohta, UPPCB,26-12-2023 22:00,27.106972,78.000111,OZONE,17,20,19
533,India,Uttar_Pradesh,Agra,Sanjay Palace, UPPCB,26-12-2023 22:00,27.19865833,78.00598056,NO2,36,131,79
534,India,Uttar_Pradesh,Agra,Sector, UPPCB,26-12-2023 22:00,27.19412,77.96237,PM2.5,44,332,141
535,India,Uttar_Pradesh,Agra,Shahjahan Garden, UPPCB,26-12-2023 22:00,27.169338,78.03582,NO2,23,93,30
536,India,Uttar_Pradesh,Agra,Shahjahan Garden, UPPCB,26-12-2023 22:00,27.169338,78.03582,SO2,19,23,20
537,India,Uttar_Pradesh,Agra,Shastripuram, UPPCB,26-12-2023 22:00,27.19862,77.92066,NH3,2,3,3
538,India,Uttar_Pradesh,Baghpat,Sardar Patel Inter College, UPPCB,26-12-2023 22:00,28.964949,77.278761,OZONE,1,35,16
539,India,Uttar_Pradesh,Bareilly,Civil Lines, UPPCB,26-12-2023 22:00,28.359581,79.414455,PM2.5,84,238,113
540,India,Uttar_Pradesh,Bareilly,Rajendra 0gar, UPPCB,26-12-2023 22:00,28.38910936,79.42963708,PM2.5,91,188,120
541,India,Uttar_Pradesh,Bareilly,Rajendra 0gar, UPPCB,26-12-2023 22:00,28.38910936,79.42963708,OZONE,8,33,13
542,India,Uttar_Pradesh,Firozabad,0gla Bhau, UPPCB,26-12-2023 22:00,27.168897,78.37696,PM2.5,41,316,159
543,India,Uttar_Pradesh,Firozabad,0gla Bhau, UPPCB,26-12-2023 22:00,27.168897,78.37696,OZONE,11,85,19
544,India,Uttar_Pradesh,Ghaziabad,Indirapuram, UPPCB,26-12-2023 22:00,28.646233,77.358075,PM10,0,0,0
545,India,Uttar_Pradesh,Ghaziabad,Indirapuram, UPPCB,26-12-2023 22:00,28.646233,77.358075,CO,14,52,31
546,India,Uttar_Pradesh,Ghaziabad,Loni, UPPCB,26-12-2023 22:00,28.757294,77.278792,NH3,2,10,6
547,India,Uttar_Pradesh,Ghaziabad,Loni, UPPCB,26-12-2023 22:00,28.757294,77.278792,SO2,3,26,10
548,India,Uttar_Pradesh,Ghaziabad,Sanjay 0gar, UPPCB,26-12-2023 22:00,28.685382,77.453839,PM2.5,163,411,315
549,India,Uttar_Pradesh,Ghaziabad,Vasundhara, UPPCB,26-12-2023 22:00,28.6603346,77.3572563,PM2.5,172,448,345
550,India,Uttar_Pradesh,Ghaziabad,Vasundhara, UPPCB,26-12-2023 22:00,28.6603346,77.3572563,NH3,1,20,14
551,India,Uttar_Pradesh,Gorakhpur,Madan Mohan Malaviya University of Technology, UPPCB,26-12-2023 22:00,26.730136,83.433859,NH3,2,3,2
552,India,Uttar_Pradesh,Gorakhpur,Madan Mohan Malaviya University of Technology, UPPCB,26-12-2023 22:00,26.730136,83.433859,CO,36,62,38
553,India,Uttar_Pradesh,Greater Noida,Knowledge Park , UPPCB,26-12-2023 22:00,28.47272,77.482,PM2.5,153,405,324
554,India,Uttar_Pradesh,Greater Noida,Knowledge Park , UPPCB,26-12-2023 22:00,28.47272,77.482,SO2,11,27,18
555,India,Uttar_Pradesh,Greater Noida,Knowledge Park , UPPCB,26-12-2023 22:00,28.557054,77.453663,NO2,59,123,88
556,India,Uttar_Pradesh,Greater Noida,Knowledge Park , UPPCB,26-12-2023 22:00,28.557054,77.453663,NH3,15,19,16
557,India,Uttar_Pradesh,Greater Noida,Knowledge Park , UPPCB,26-12-2023 22:00,28.557054,77.453663,CO,18,121,89
558,India,Uttar_Pradesh,Greater Noida,Knowledge Park , UPPCB,26-12-2023 22:00,28.557054,77.453663,OZONE,1,126,47
559,India,Uttar_Pradesh,Hapur,A0nd Vihar, UPPCB,26-12-2023 22:00,28.725645,77.749675,PM10,132,408,220
560,India,Uttar_Pradesh,Hapur,A0nd Vihar, UPPCB,26-12-2023 22:00,28.725645,77.749675,NH3,9,15,11
561,India,Uttar_Pradesh,Jhansi,Shivaji 0gar, UPPCB,26-12-2023 22:00,25.4547,78.6039,NO2,13,106,37
562,India,Uttar_Pradesh,Kanpur,FTI Kidwai 0gar, UPPCB,26-12-2023 22:00,26.428282,80.327067,SO2,18,19,18
563,India,Uttar_Pradesh,Kanpur,NSI Kalyanpur, UPPCB,26-12-2023 22:00,26.509954,80.249612,PM2.5,48,317,137
564,India,Uttar_Pradesh,Kanpur,NSI Kalyanpur, UPPCB,26-12-2023 22:00,26.509954,80.249612,NO2,14,29,18
565,India,Uttar_Pradesh,Kanpur,Nehru 0gar, UPPCB,26-12-2023 22:00,26.4703136,80.3229863,CO,2,118,78
566,India,Uttar_Pradesh,Kanpur,Nehru 0gar, UPPCB,26-12-2023 22:00,26.4703136,80.3229863,OZONE,5,60,33
567,India,Uttar_Pradesh,Lucknow,Kendriya Vidyalaya, UPPCB,26-12-2023 22:00,26.906111,80.948222,NO2,7,25,15
568,India,Uttar_Pradesh,Lucknow,Kukrail Picnic Spot, UPPCB,26-12-2023 22:00,26.90723,80.98579,PM10,82,120,99
569,India,Uttar_Pradesh,Lucknow,Lalbagh, UPPCB,26-12-2023 22:00,26.8458805,80.9365541,NH3,18,34,22
570,India,Uttar_Pradesh,Lucknow,Lalbagh, CPCB,26-12-2023 22:00,26.8458805,80.9365541,OZONE,1,55,27
571,India,Uttar_Pradesh,Lucknow,Talkatora District Industries Center, CPCB,26-12-2023 22:00,26.83399722,80.8917361,PM2.5,255,367,315
572,India,Uttar_Pradesh,Lucknow,Talkatora District Industries Center, CPCB,26-12-2023 22:00,26.83399722,80.8917361,SO2,4,22,10
573,India,Uttar_Pradesh,Lucknow,Talkatora District Industries Center, CPCB,26-12-2023 22:00,26.83399722,80.8917361,OZONE,1,43,21
574,India,Uttar_Pradesh,Meerut,Pallavpuram Phase 2, UPPCB,26-12-2023 22:00,29.06351,77.709723,PM10,69,212,127
575,India,Uttar_Pradesh,Meerut,Pallavpuram Phase 2, UPPCB,26-12-2023 22:00,29.06351,77.709723,NO2,18,61,35
576,India,Uttar_Pradesh,Meerut,Pallavpuram Phase 2, UPPCB,26-12-2023 22:00,29.06351,77.709723,SO2,1,27,8
577,India,Uttar_Pradesh,Meerut,Pallavpuram Phase 2, UPPCB,26-12-2023 22:00,29.06351,77.709723,OZONE,7,27,15
578,India,Uttar_Pradesh,Moradabad,Buddhi Vihar, UPPCB,26-12-2023 22:00,28.83526,78.7446,NO2,17,24,23
579,India,Uttar_Pradesh,Moradabad,Buddhi Vihar, UPPCB,26-12-2023 22:00,28.83526,78.7446,NH3,8,10,9
580,India,Uttar_Pradesh,Moradabad,Buddhi Vihar, UPPCB,26-12-2023 22:00,28.83526,78.7446,SO2,16,22,19
581,India,Uttar_Pradesh,Moradabad,Buddhi Vihar, UPPCB,26-12-2023 22:00,28.83526,78.7446,CO,57,110,73
582,India,Uttar_Pradesh,Moradabad,Eco Herbal Park, UPPCB,26-12-2023 22:00,28.840739,78.697531,OZONE,2,92,35
583,India,Uttar_Pradesh,Moradabad,Jigar Colony, UPPCB,26-12-2023 22:00,28.856664,78.772638,PM10,109,300,149
584,India,Uttar_Pradesh,Moradabad,Kashiram 0gar, UPPCB,26-12-2023 22:00,28.849399,78.742362,CO,22,102,74
585,India,Uttar_Pradesh,Moradabad,Kashiram 0gar, UPPCB,26-12-2023 22:00,28.849399,78.742362,OZONE,15,132,34
586,India,Uttar_Pradesh,Moradabad,Transport 0gar, UPPCB,26-12-2023 22:00,28.802625,78.753728,PM10,76,236,137
587,India,Uttar_Pradesh,Moradabad,Transport 0gar, UPPCB,26-12-2023 22:00,28.802625,78.753728,SO2,40,43,41
588,India,Uttar_Pradesh,Moradabad,Transport 0gar, UPPCB,26-12-2023 22:00,28.802625,78.753728,CO,40,42,41
589,India,Uttar_Pradesh,Muzaffar0gar,New Mandi, UPPCB,26-12-2023 22:00,29.4723508,77.7194031,SO2,3,66,23
590,India,Uttar_Pradesh,Noida,Sector , IMD,26-12-2023 22:00,28.6245479,77.3577104,PM2.5,208,453,353
591,India,Uttar_Pradesh,Noida,Sector , IMD,26-12-2023 22:00,28.6245479,77.3577104,NO2,30,85,45
592,India,Uttar_Pradesh,Noida,Sector , IMD,26-12-2023 22:00,28.6245479,77.3577104,CO,78,106,93
593,India,Uttar_Pradesh,Noida,Sector, UPPCB,26-12-2023 22:00,28.5898,77.3101,NO2,0,0,0
594,India,Uttar_Pradesh,Noida,Sector, UPPCB,26-12-2023 22:00,28.56923,77.393848,PM10,142,414,260
595,India,Uttar_Pradesh,Noida,Sector, UPPCB,26-12-2023 22:00,28.56923,77.393848,SO2,1,22,11
596,India,Uttar_Pradesh,Noida,Sector, UPPCB,26-12-2023 22:00,28.56923,77.393848,CO,4,108,65
597,India,Uttar_Pradesh,Prayagraj,Jhunsi, UPPCB,26-12-2023 22:00,25.425602,81.917152,NH3,5,5,5
598,India,Uttar_Pradesh,Prayagraj,Jhunsi, UPPCB,26-12-2023 22:00,25.425602,81.917152,CO,28,104,63
599,India,Uttar_Pradesh,Prayagraj,Motilal Nehru NIT, UPPCB,26-12-2023 22:00,25.494,81.863,SO2,45,64,52
600,India,Uttar_Pradesh,Prayagraj,0gar Nigam, UPPCB,26-12-2023 22:00,25.44919916,81.82735986,PM2.5,77,242,142
601,India,Uttar_Pradesh,Prayagraj,0gar Nigam, UPPCB,26-12-2023 22:00,25.44919916,81.82735986,PM10,88,195,135
602,India,Uttar_Pradesh,Prayagraj,0gar Nigam, UPPCB,26-12-2023 22:00,25.44919916,81.82735986,SO2,33,69,50
603,India,Uttar_Pradesh,Vara0si,Ardhali Bazar, UPPCB,26-12-2023 22:00,25.3505986,82.9083074,NO2,26,44,34
604,India,Uttar_Pradesh,Vara0si,Bhelupur, UPPCB,26-12-2023 22:00,25.301778,82.996789,PM10,61,163,93
605,India,Uttar_Pradesh,Vara0si,Bhelupur, UPPCB,26-12-2023 22:00,25.301778,82.996789,NH3,2,3,2
606,India,Uttar_Pradesh,Vara0si,IESD Ba0ras Hindu University, UPPCB,26-12-2023 22:00,25.262326,82.995408,PM2.5,43,103,64
607,India,Uttar_Pradesh,Vara0si,IESD Ba0ras Hindu University, UPPCB,26-12-2023 22:00,25.262326,82.995408,PM10,46,110,75
608,India,Uttar_Pradesh,Vara0si,IESD Ba0ras Hindu University, UPPCB,26-12-2023 22:00,25.262326,82.995408,NO2,2,2,2
609,India,Uttar_Pradesh,Vara0si,Maldahiya, UPPCB,26-12-2023 22:00,25.32393,82.99687,PM2.5,34,79,61
610,India,Uttar_Pradesh,Vrindavan,Omex Eternity, UPPCB,26-12-2023 22:00,27.571409,77.655757,SO2,34,36,35
611,India,Uttar_Pradesh,Vrindavan,Omex Eternity, UPPCB,26-12-2023 22:00,27.571409,77.655757,OZONE,24,25,25
612,India,Uttarakhand,Rishikesh,Shivaji 0gar, UKPCB,26-12-2023 22:00,30.075911,78.2859547,PM10,60,99,78
613,India,Uttarakhand,Rishikesh,Shivaji 0gar, UKPCB,26-12-2023 22:00,30.075911,78.2859547,NH3,3,4,4
614,India,West_Bengal,Asansol,Asansol Court Area, WBPCB,26-12-2023 22:00,23.685297,86.945968,PM10,74,256,136
615,India,West_Bengal,Barrackpore,SVSPA Campus, WBPCB,26-12-2023 22:00,22.7605581,88.3617589,PM2.5,89,359,240
616,India,West_Bengal,Barrackpore,SVSPA Campus, WBPCB,26-12-2023 22:00,22.7605581,88.3617589,NH3,1,3,2
617,India,West_Bengal,Barrackpore,SVSPA Campus, WBPCB,26-12-2023 22:00,22.7605581,88.3617589,SO2,6,10,7
618,India,West_Bengal,Durgapur,Sidhu Kanhu Indoor Stadium, WBPCB,26-12-2023 22:00,23.5404352,87.2892225,PM2.5,59,148,84
619,India,West_Bengal,Durgapur,Sidhu Kanhu Indoor Stadium, WBPCB,26-12-2023 22:00,23.5404352,87.2892225,NO2,19,64,30
620,India,West_Bengal,Durgapur,Sidhu Kanhu Indoor Stadium, WBPCB,26-12-2023 22:00,23.5404352,87.2892225,SO2,30,35,33
621,India,West_Bengal,Howrah,Belur Math, WBPCB,26-12-2023 22:00,22.629801,88.352017,PM10,61,426,241
622,India,West_Bengal,Howrah,Belur Math, WBPCB,26-12-2023 22:00,22.629801,88.352017,CO,4,111,42
623,India,West_Bengal,Howrah,Padmapukur, WBPCB,26-12-2023 22:00,22.5687319,88.2797276,PM2.5,80,303,203
624,India,West_Bengal,Kolkata,Ballygunge, WBPCB,26-12-2023 22:00,22.5367507,88.3638022,NO2,31,137,78
625,India,West_Bengal,Kolkata,Ballygunge, WBPCB,26-12-2023 22:00,22.5367507,88.3638022,NH3,8,24,17
626,India,West_Bengal,Kolkata,Bidhan0gar, WBPCB,26-12-2023 22:00,22.58157048,88.41002457,NO2,16,59,36
627,India,West_Bengal,Kolkata,Fort William, WBPCB,26-12-2023 22:00,22.55664,88.342674,PM2.5,88,326,241
628,India,West_Bengal,Kolkata,Fort William, WBPCB,26-12-2023 22:00,22.55664,88.342674,NH3,8,14,11
629,India,West_Bengal,Kolkata,Jadavpur, WBPCB,26-12-2023 22:00,22.49929,88.36917,PM2.5,60,252,147
630,India,West_Bengal,Kolkata,Jadavpur, WBPCB,26-12-2023 22:00,22.49929,88.36917,SO2,5,7,6
631,India,West_Bengal,Kolkata,Victoria, WBPCB,26-12-2023 22:00,22.5448082,88.3403691,SO2,4,13,9
632,India,West_Bengal,Siliguri,Ward, WBPCB,26-12-2023 22:00,26.6879226,88.4152495,OZONE,7,76,34
633,India,Andhra_Pradesh,Amaravati,Secretariat, APPCB,26-12-2023 22:00,16.5150833,80.5181667,SO2,6,22,10
634,India,Andhra_Pradesh,Amaravati,Secretariat, APPCB,26-12-2023 22:00,16.5150833,80.5181667,CO,16,55,47
635,India,Andhra_Pradesh,A0ntapur,Gulzarpet, APPCB,26-12-2023 22:00,14.675886,77.593027,PM2.5,44,70,55
636,India,Andhra_Pradesh,Chittoor,Gangineni Cheruvu, APPCB,26-12-2023 22:00,13.20488,79.097889,PM2.5,21,83,46
637,India,Andhra_Pradesh,Chittoor,Gangineni Cheruvu, APPCB,26-12-2023 22:00,13.20488,79.097889,PM10,23,85,48
638,India,Andhra_Pradesh,Kadapa,Yerramukkapalli, APPCB,26-12-2023 22:00,14.465052,78.824187,NO2,12,23,15
639,India,Andhra_Pradesh,Kadapa,Yerramukkapalli, APPCB,26-12-2023 22:00,14.465052,78.824187,OZONE,8,49,35
640,India,Andhra_Pradesh,Rajamahendravaram,A0nd Kala Kshetram, APPCB,26-12-2023 22:00,16.9872867,81.7363176,SO2,12,34,19
641,India,Andhra_Pradesh,Rajamahendravaram,A0nd Kala Kshetram, APPCB,26-12-2023 22:00,16.9872867,81.7363176,OZONE,15,66,53
642,India,Andhra_Pradesh,Tirupati,Vaikuntapuram, APPCB,26-12-2023 22:00,13.615387,79.40923,NO2,16,31,21
643,India,Andhra_Pradesh,Vijayawada,Kanuru, APPCB,26-12-2023 22:00,16.486692,80.699436,NH3,0,0,0
644,India,Andhra_Pradesh,Vijayawada,Kanuru, APPCB,26-12-2023 22:00,16.486692,80.699436,SO2,0,0,0
645,India,Andhra_Pradesh,Vijayawada,Kanuru, APPCB,26-12-2023 22:00,16.486692,80.699436,CO,32,57,46
646,India,Andhra_Pradesh,Vijayawada,Kanuru, APPCB,26-12-2023 22:00,16.486692,80.699436,OZONE,27,28,27
647,India,Andhra_Pradesh,Vijayawada,Rajiv Gandhi Park, APPCB,26-12-2023 22:00,16.509717,80.612222,NH3,2,8,7
648,India,Andhra_Pradesh,Visakhapat0m,GVM Corporation, APPCB,26-12-2023 22:00,17.72,83.3,NH3,1,2,1
649,India,Aru0chal_Pradesh,0harlagun,0harlagun, APSPCB,26-12-2023 22:00,27.103358,93.679645,OZONE,2,2,2
650,India,Assam,Byrnihat,Central Academy for SFS, PCBA,26-12-2023 22:00,26.071318,91.87488,NH3,2,3,3
651,India,Assam,Guwahati,IITG, PCBA,26-12-2023 22:00,26.2028636,91.70046436,NO2,1,15,7
652,India,Assam,Guwahati,LGBI Airport, PCBA,26-12-2023 22:00,26.10887,91.589544,NO2,0,0,0
653,India,Assam,Guwahati,Pan Bazaar, PCBA,26-12-2023 22:00,26.1875,91.744194,PM2.5,40,323,182
654,India,Assam,Guwahati,Pan Bazaar, PCBA,26-12-2023 22:00,26.1875,91.744194,SO2,57,103,69
655,India,Assam,Guwahati,Railway Colony, PCBA,26-12-2023 22:00,26.181742,91.78063,PM2.5,0,0,0
656,India,Assam,Guwahati,Railway Colony, PCBA,26-12-2023 22:00,26.181742,91.78063,NO2,0,0,0
657,India,Assam,Guwahati,Railway Colony, PCBA,26-12-2023 22:00,26.181742,91.78063,CO,0,0,0
658,India,Assam,0lbari,Bata Chowk, PCBA,26-12-2023 22:00,26.446912,91.439057,CO,7,126,99
659,India,Assam,Silchar,Tarapur, PCBA,26-12-2023 22:00,24.82827,92.79525,PM10,35,39,37
660,India,Assam,Sivasagar,Girls College, PCBA,26-12-2023 22:00,26.987634,94.636574,PM2.5,17,54,38
661,India,Assam,Sivasagar,Girls College, PCBA,26-12-2023 22:00,26.987634,94.636574,PM10,36,89,56
662,India,Bihar,Araria,Kharahiya Basti, BSPCB,26-12-2023 22:00,26.146529,87.454184,NH3,6,9,7
663,India,Bihar,Araria,Kharahiya Basti, BSPCB,26-12-2023 22:00,26.146529,87.454184,SO2,16,18,17
664,India,Bihar,Aurangabad,Gurdeo 0gar, BSPCB,26-12-2023 22:00,24.75746,84.366208,PM10,65,291,118
665,India,Bihar,Aurangabad,Gurdeo 0gar, BSPCB,26-12-2023 22:00,24.75746,84.366208,NH3,1,10,2
666,India,Bihar,Aurangabad,Gurdeo 0gar, BSPCB,26-12-2023 22:00,24.75746,84.366208,SO2,0,0,0
667,India,Bihar,Bettiah,Kamal0th 0gar, BSPCB,26-12-2023 22:00,26.80365,84.51954,NH3,3,3,3
668,India,Bihar,Bettiah,Kamal0th 0gar, BSPCB,26-12-2023 22:00,26.80365,84.51954,OZONE,7,13,10
669,India,Bihar,Bhagalpur,DM Office_Kachari Chowk, BSPCB,26-12-2023 22:00,25.251013,86.989001,OZONE,16,38,25
670,India,Bihar,Bhagalpur,Mayaganj, BSPCB,26-12-2023 22:00,25.265194,87.012947,NO2,6,33,14
671,India,Bihar,Bhagalpur,Mayaganj, BSPCB,26-12-2023 22:00,25.265194,87.012947,CO,6,11,9
672,India,Bihar,Bhagalpur,Mayaganj, BSPCB,26-12-2023 22:00,25.265194,87.012947,OZONE,11,59,42
673,India,Bihar,Bihar Sharif,D M Colony, BSPCB,26-12-2023 22:00,25.204762,85.51496,PM2.5,42,200,75
674,India,Bihar,Bihar Sharif,D M Colony, BSPCB,26-12-2023 22:00,25.204762,85.51496,PM10,106,340,160
675,India,Bihar,Chhapra,Darshan 0gar, BSPCB,26-12-2023 22:00,25.7808257,84.7446768,NH3,2,4,3
676,India,Bihar,Gaya,Kareemganj, BSPCB,26-12-2023 22:00,24.792403,84.992416,PM2.5,50,240,109
677,India,Bihar,Gaya,Kareemganj, BSPCB,26-12-2023 22:00,24.792403,84.992416,SO2,7,11,9
678,India,Bihar,Gaya,Kareemganj, BSPCB,26-12-2023 22:00,24.792403,84.992416,CO,6,107,48
679,India,Bihar,Gaya,SFTI Kusdihra, BSPCB,26-12-2023 22:00,24.762518,84.982348,SO2,6,10,9
680,India,Bihar,Hajipur,Industrial Area, BSPCB,26-12-2023 22:00,25.697189,85.2459,PM2.5,47,136,68
681,India,Bihar,Katihar,Mirchaibari, BSPCB,26-12-2023 22:00,25.560083,87.553265,NO2,26,41,33
682,India,Bihar,Katihar,Mirchaibari, BSPCB,26-12-2023 22:00,25.560083,87.553265,NH3,3,6,4
683,India,Bihar,Katihar,Mirchaibari, BSPCB,26-12-2023 22:00,25.560083,87.553265,CO,27,34,33
684,India,Bihar,Manguraha,Forest Rest House, BSPCB,26-12-2023 22:00,27.308328,84.531742,PM2.5,17,88,35
685,India,Bihar,Manguraha,Forest Rest House, BSPCB,26-12-2023 22:00,27.308328,84.531742,NO2,0,0,0
686,India,Bihar,Manguraha,Forest Rest House, BSPCB,26-12-2023 22:00,27.308328,84.531742,NH3,3,3,3
687,India,Bihar,Munger,Town Hall, BSPCB,26-12-2023 22:00,25.376776,86.471523,NO2,0,0,0
688,India,Bihar,Muzaffarpur,MIT, BSPCB,26-12-2023 22:00,26.1403345,85.3650192,CO,1,102,87
689,India,Bihar,Pat0,DRM Office Da0pur, BSPCB,26-12-2023 22:00,25.586562,85.043586,SO2,6,8,7
690,India,Bihar,Pat0,Govt. High School Shikarpur, BSPCB,26-12-2023 22:00,25.592539,85.227158,NO2,12,29,20
691,India,Bihar,Pat0,Govt. High School Shikarpur, BSPCB,26-12-2023 22:00,25.592539,85.227158,NH3,2,7,5
692,India,Bihar,Pat0,IGSC Planetarium Complex, BSPCB,26-12-2023 22:00,25.610369,85.132568,NO2,9,9,9
693,India,Bihar,Pat0,IGSC Planetarium Complex, BSPCB,26-12-2023 22:00,25.610369,85.132568,OZONE,10,14,13
694,India,Bihar,Pat0,Rajbansi 0gar, BSPCB,26-12-2023 22:00,25.599486,85.113666,PM10,0,0,0
695,India,Bihar,Pat0,Rajbansi 0gar, BSPCB,26-12-2023 22:00,25.599486,85.113666,NO2,0,0,0
696,India,Bihar,Pat0,Rajbansi 0gar, BSPCB,26-12-2023 22:00,25.599486,85.113666,SO2,0,0,0
697,India,Bihar,Pat0,Samanpura, BSPCB,26-12-2023 22:00,25.596727,85.085624,SO2,2,7,5
698,India,Bihar,Purnia,Mariam 0gar, BSPCB,26-12-2023 22:00,25.366336,87.117468,SO2,17,19,18
699,India,Bihar,Rajgir,Dangi Tola, BSPCB,26-12-2023 22:00,25.0328,85.41948,SO2,4,53,11
700,India,Bihar,Samastipur,DM Office_Kasipur, BSPCB,26-12-2023 22:00,25.859655,85.77944,NH3,3,4,4
701,India,Bihar,Siwan,Chitragupta 0gar, BSPCB,26-12-2023 22:00,26.2271665,84.3570427,CO,46,150,118
702,India,Chandigarh,Chandigarh,Sector 22, CPCC,26-12-2023 22:00,30.735567,76.775714,NH3,8,13,10
703,India,Chandigarh,Chandigarh,Sector 22, CPCC,26-12-2023 22:00,30.735567,76.775714,OZONE,2,124,34
704,India,Chandigarh,Chandigarh,Sector, CPCC,26-12-2023 22:00,30.719859,76.738637,SO2,1,23,8
705,India,Chhattisgarh,Bhilai,32Bungalows, CECB,26-12-2023 22:00,21.194815,81.31477,PM2.5,255,318,292
706,India,Chhattisgarh,Bhilai,Civic Center, CECB,26-12-2023 22:00,21.185571,81.343175,PM2.5,0,0,0
707,India,Chhattisgarh,Bhilai,Hathkhoj, CECB,26-12-2023 22:00,21.224231,81.40835,CO,39,103,53
708,India,Chhattisgarh,Bhilai,Hathkhoj, CECB,26-12-2023 22:00,21.224231,81.40835,OZONE,15,56,45
709,India,Chhattisgarh,Bilaspur,Mangala, NTPC,26-12-2023 22:00,22.08815,82.13737,PM10,0,0,0
710,India,Chhattisgarh,Bilaspur,Mangala, NTPC,26-12-2023 22:00,22.08815,82.13737,CO,16,26,24
711,India,Chhattisgarh,Chhal,0wapara SECL Colony, CECB,26-12-2023 22:00,22.118125,83.140608,PM10,46,146,84
712,India,Chhattisgarh,Chhal,0wapara SECL Colony, CECB,26-12-2023 22:00,22.118125,83.140608,SO2,7,38,16
713,India,Chhattisgarh,Chhal,0wapara SECL Colony, CECB,26-12-2023 22:00,22.118125,83.140608,OZONE,5,112,68
714,India,Chhattisgarh,Korba,Rampur, CECB,26-12-2023 22:00,22.368195,82.746431,PM2.5,33,115,54
715,India,Chhattisgarh,Korba,Rampur, CECB,26-12-2023 22:00,22.368195,82.746431,CO,24,50,30
716,India,Chhattisgarh,Korba,Urja 0gar, CECB,26-12-2023 22:00,22.348441,82.549611,PM2.5,21,61,35
717,India,Chhattisgarh,Korba,Urja 0gar, CECB,26-12-2023 22:00,22.348441,82.549611,OZONE,24,48,45
718,India,Chhattisgarh,Kunjemura,OP Jindal School, CECB,26-12-2023 22:00,22.12665,83.483212,PM2.5,62,317,100
719,India,Chhattisgarh,Milupara,Govt. Higher Secondary School, CECB,26-12-2023 22:00,22.1910172,83.5197009,PM10,50,104,71
720,India,Chhattisgarh,Raipur,AIIMS, CECB,26-12-2023 22:00,21.258815,81.578979,NH3,4,4,4
721,India,Chhattisgarh,Raipur,Bhatagaon New ISBT, CECB,26-12-2023 22:00,21.219665,81.630094,NH3,0,0,0
722,India,Chhattisgarh,Raipur,Krishak 0gar, CECB,26-12-2023 22:00,21.237755,81.705301,NH3,1,1,1
723,India,Chhattisgarh,Raipur,Siltara Phase, CECB,26-12-2023 22:00,21.371751,81.664929,PM10,113,198,157
724,India,Chhattisgarh,Tumidih,OP Jindal Industrial Park, CECB,26-12-2023 22:00,22.06631475,83.33820077,PM2.5,67,335,127
725,India,Delhi,Delhi,Alipur, DPCC,26-12-2023 22:00,28.815329,77.15301,PM10,134,369,217
726,India,Delhi,Delhi,Alipur, DPCC,26-12-2023 22:00,28.815329,77.15301,OZONE,4,81,37
727,India,Delhi,Delhi,A0nd Vihar, DPCC,26-12-2023 22:00,28.647622,77.315809,NO2,35,124,86
728,India,Delhi,Delhi,A0nd Vihar, DPCC,26-12-2023 22:00,28.647622,77.315809,SO2,1,18,8
729,India,Delhi,Delhi,Aya 0gar, IMD,26-12-2023 22:00,28.4706914,77.1099364,PM2.5,183,372,323
730,India,Delhi,Delhi,Aya 0gar, IMD,26-12-2023 22:00,28.4706914,77.1099364,CO,54,101,66
731,India,Delhi,Delhi,Bawa0, DPCC,26-12-2023 22:00,28.7762,77.051074,SO2,1,3,2
732,India,Delhi,Delhi,DTU, CPCB,26-12-2023 22:00,28.7500499,77.1112615,PM2.5,98,324,241
733,India,Delhi,Delhi,DTU, CPCB,26-12-2023 22:00,28.7500499,77.1112615,PM10,213,420,348
734,India,Delhi,Delhi,DTU, CPCB,26-12-2023 22:00,28.7500499,77.1112615,NH3,17,26,21
735,India,Delhi,Delhi,Dwarka, DPCC ,26-12-2023 22:00,28.5710274,77.0719006,PM2.5,346,492,397
736,India,Delhi,Delhi,IHBAS, CPCB,26-12-2023 22:00,28.6811736,77.3025234,PM2.5,0,0,0
737,India,Delhi,Delhi,ITO, CPCB,26-12-2023 22:00,28.628624,77.24106,NO2,19,104,62
738,India,Delhi,Delhi,Jahangirpuri, DPCC,26-12-2023 22:00,28.73282,77.170633,PM2.5,344,500,430
739,India,Delhi,Delhi,Jawaharlal Nehru Stadium, DPCC,26-12-2023 22:00,28.58028,77.233829,NH3,14,21,18
740,India,Delhi,Delhi,Jawaharlal Nehru Stadium, DPCC,26-12-2023 22:00,28.58028,77.233829,CO,34,127,74
741,India,Delhi,Delhi,Major Dhyan Chand 0tio0l Stadium, DPCC,26-12-2023 22:00,28.611281,77.237738,NO2,3,28,13
742,India,Delhi,Delhi,Major Dhyan Chand 0tio0l Stadium, DPCC,26-12-2023 22:00,28.611281,77.237738,CO,10,130,88
743,India,Delhi,Delhi,Mandir Marg, DPCC,26-12-2023 22:00,28.636429,77.201067,NO2,47,76,61
744,India,Delhi,Delhi,Mandir Marg, DPCC,26-12-2023 22:00,28.636429,77.201067,SO2,1,10,4
745,India,Delhi,Delhi,Mandir Marg, DPCC,26-12-2023 22:00,28.636429,77.201067,OZONE,4,16,9
746,India,Delhi,Delhi,Mundka, DPCC,26-12-2023 22:00,28.684678,77.076574,NO2,28,107,66
747,India,Delhi,Delhi,Mundka, DPCC,26-12-2023 22:00,28.684678,77.076574,SO2,10,19,12
748,India,Delhi,Delhi,Mundka, DPCC,26-12-2023 22:00,28.684678,77.076574,OZONE,2,47,23
749,India,Delhi,Delhi,NSIT Dwarka, CPCB,26-12-2023 22:00,28.60909,77.0325413,NH3,6,9,8
750,India,Delhi,Delhi,NSIT Dwarka, CPCB,26-12-2023 22:00,28.60909,77.0325413,CO,38,121,50
751,India,Delhi,Delhi,0rela, DPCC,26-12-2023 22:00,28.822836,77.101981,PM2.5,304,417,353
752,India,Delhi,Delhi,0rela, DPCC,26-12-2023 22:00,28.822836,77.101981,OZONE,3,53,25
753,India,Delhi,Delhi,Nehru 0gar, DPCC,26-12-2023 22:00,28.56789,77.250515,PM2.5,308,500,429
754,India,Delhi,Delhi,Nehru 0gar, DPCC,26-12-2023 22:00,28.56789,77.250515,NH3,7,22,11
755,India,Delhi,Delhi,New Moti Bagh, MHUA,26-12-2023 22:00,28.57834,77.184,PM2.5,311,471,383
756,India,Delhi,Delhi,North Campus, IMD,26-12-2023 22:00,28.6573814,77.1585447,NO2,0,0,0
757,India,Delhi,Delhi,Okhla Phase, DPCC,26-12-2023 22:00,28.530785,77.271255,PM10,181,415,298
758,India,Delhi,Delhi,Okhla Phase, DPCC,26-12-2023 22:00,28.530785,77.271255,NH3,24,35,29
759,India,Delhi,Delhi,Okhla Phase, DPCC,26-12-2023 22:00,28.530785,77.271255,CO,2,128,64
760,India,Delhi,Delhi,Punjabi Bagh, DPCC,26-12-2023 22:00,28.674045,77.131023,NH3,6,11,9
761,India,Delhi,Delhi,Pusa, IMD,26-12-2023 22:00,28.63611,77.173332,PM10,125,339,225
762,India,Delhi,Delhi,R K Puram, DPCC,26-12-2023 22:00,28.563262,77.186937,PM10,175,500,292
763,India,Delhi,Delhi,R K Puram, DPCC,26-12-2023 22:00,28.563262,77.186937,CO,46,104,61
764,India,Delhi,Delhi,Rohini, DPCC,26-12-2023 22:00,28.732528,77.11992,NH3,19,26,23
765,India,Delhi,Delhi,Rohini, DPCC,26-12-2023 22:00,28.732528,77.11992,OZONE,1,44,18
766,India,Delhi,Delhi,Shadipur, CPCB,26-12-2023 22:00,28.6514781,77.1473105,PM2.5,318,466,403
767,India,Delhi,Delhi,Shadipur, CPCB,26-12-2023 22:00,28.6514781,77.1473105,NH3,14,25,19
768,India,Delhi,Delhi,Sirifort, CPCB,26-12-2023 22:00,28.5504249,77.2159377,NH3,3,12,7
769,India,Delhi,Delhi,Sirifort, CPCB,26-12-2023 22:00,28.5504249,77.2159377,SO2,24,38,29
770,India,Delhi,Delhi,Sonia Vihar, DPCC,26-12-2023 22:00,28.710508,77.249485,OZONE,2,59,26
771,India,Delhi,Delhi,Sri Aurobindo Marg, DPCC,26-12-2023 22:00,28.531346,77.190156,PM10,172,336,236
772,India,Delhi,Delhi,Vivek Vihar, DPCC,26-12-2023 22:00,28.672342,77.31526,PM2.5,315,463,390
773,India,Delhi,Delhi,Vivek Vihar, DPCC,26-12-2023 22:00,28.672342,77.31526,OZONE,1,12,6
774,India,Delhi,Delhi,Wazirpur, DPCC,26-12-2023 22:00,28.699793,77.165453,PM10,271,468,378
775,India,Delhi,Delhi,Wazirpur, DPCC,26-12-2023 22:00,28.699793,77.165453,CO,10,148,87
776,India,Gujarat,Ahmedabad,Chandkheda, IITM,26-12-2023 22:00,23.107969,72.574648,PM2.5,95,315,176
777,India,Gujarat,Ahmedabad,Chandkheda, IITM,26-12-2023 22:00,23.107969,72.574648,OZONE,21,24,22
778,India,Gujarat,Ahmedabad,Gyaspur, IITM,26-12-2023 22:00,22.977134,72.553024,PM2.5,179,326,246
779,India,Gujarat,Ahmedabad,Gyaspur, IITM,26-12-2023 22:00,22.977134,72.553024,PM10,133,230,162
780,India,Gujarat,Ahmedabad,Gyaspur, IITM,26-12-2023 22:00,22.977134,72.553024,CO,30,30,30
781,India,Gujarat,Ahmedabad,Gyaspur, IITM,26-12-2023 22:00,22.977134,72.553024,OZONE,20,21,20
782,India,Gujarat,Ahmedabad,Mani0gar, GPCB,26-12-2023 22:00,23.002657,72.591912,NO2,24,143,68
783,India,Gujarat,Ahmedabad,Mani0gar, GPCB,26-12-2023 22:00,23.002657,72.591912,OZONE,7,141,77
784,India,Gujarat,Ahmedabad,Raikhad, IITM,26-12-2023 22:00,23.020509,72.579261,PM2.5,21,500,257
785,India,Gujarat,Ahmedabad,SAC ISRO Satellite, IITM,26-12-2023 22:00,23.023389,72.515201,SO2,4,8,5
786,India,Gujarat,Ahmedabad,SVPI Airport Hansol, IITM,26-12-2023 22:00,23.076793,72.627874,PM2.5,35,136,61
787,India,Gujarat,Ahmedabad,Sardar Vallabhbhai Patel Stadium, IITM,26-12-2023 22:00,23.04307,72.562968,PM10,68,142,98
788,India,Gujarat,Ahmedabad,Sardar Vallabhbhai Patel Stadium, IITM,26-12-2023 22:00,23.04307,72.562968,OZONE,2,20,11
789,India,Gujarat,Ankleshwar,GIDC, GPCB,26-12-2023 22:00,21.613267,73.010555,PM10,12,168,111
790,India,Gujarat,Gandhi0gar,IIPHG Lekawada, IITM,26-12-2023 22:00,23.243639,72.68994,PM2.5,62,73,66
791,India,Gujarat,Surat,Science Center, SMC,26-12-2023 22:00,21.170046,72.795405,PM10,132,233,167
792,India,Gujarat,Vapi,Phase, GPCB,26-12-2023 22:00,20.362421,72.918013,PM10,122,390,219
793,India,Gujarat,Vatva,Phase, GPCB,26-12-2023 22:00,22.969611,72.6435,PM10,112,213,141
794,India,Harya0,Ambala,Patti Mehar, HSPCB,26-12-2023 22:00,30.379589,76.778328,PM2.5,76,314,179
795,India,Harya0,Ambala,Patti Mehar, HSPCB,26-12-2023 22:00,30.379589,76.778328,OZONE,19,34,30
796,India,Harya0,Bahadurgarh,Arya 0gar, HSPCB,26-12-2023 22:00,28.6701,76.9254,PM2.5,162,378,298
797,India,Harya0,Bahadurgarh,Arya 0gar, HSPCB,26-12-2023 22:00,28.6701,76.9254,NO2,33,40,37
798,India,Harya0,Bahadurgarh,Arya 0gar, HSPCB,26-12-2023 22:00,28.6701,76.9254,OZONE,38,48,43
799,India,Harya0,Ballabgarh,0thu Colony, HSPCB,26-12-2023 22:00,28.3419248,77.319699,PM2.5,325,374,349
800,India,Harya0,Charkhi Dadri,Mini Secretariat, HSPCB,26-12-2023 22:00,28.593883,76.270653,SO2,9,23,14
801,India,Harya0,Charkhi Dadri,Mini Secretariat, HSPCB,26-12-2023 22:00,28.593883,76.270653,CO,52,104,76
802,India,Harya0,Faridabad,New Industrial Town, HSPCB,26-12-2023 22:00,28.39072,77.30059,PM2.5,177,482,352
803,India,Harya0,Faridabad,Sector 30, HSPCB,26-12-2023 22:00,28.4417,77.3217,PM2.5,154,187,169
804,India,Harya0,Faridabad,Sector, HSPCB,26-12-2023 22:00,28.4088421,77.3099081,CO,24,122,80
805,India,Harya0,Faridabad,Sector, HSPCB,26-12-2023 22:00,28.4088421,77.3099081,OZONE,14,14,14
806,India,Harya0,Fatehabad,Huda Sector, HSPCB,26-12-2023 22:00,29.503664,75.467934,OZONE,20,31,24
807,India,Harya0,Gurugram,Sector, HSPCB,26-12-2023 22:00,28.4227,77.0667,PM2.5,304,500,349
808,India,Harya0,Gurugram,Sector, HSPCB,26-12-2023 22:00,28.4227,77.0667,CO,59,122,84
809,India,Harya0,Gurugram,Sector, HSPCB,26-12-2023 22:00,28.4227,77.0667,OZONE,27,67,56
810,India,Harya0,Gurugram,Teri Gram, HSPCB,26-12-2023 22:00,28.4275,77.1465,PM10,62,193,158
811,India,Harya0,Gurugram,Vikas Sadan, HSPCB,26-12-2023 22:00,28.4501238,77.0263051,PM2.5,92,343,231
812,India,Harya0,Kaithal,Rishi 0gar, HSPCB,26-12-2023 22:00,29.8006,76.4155,CO,46,107,86
813,India,Harya0,Mandikhera,General Hospital, HSPCB,26-12-2023 22:00,27.9002,76.9938,PM10,119,274,160
814,India,Harya0,Panchkula,Sector, HSPCB,26-12-2023 22:00,30.7057778,76.85318056,PM2.5,42,300,183
815,India,Harya0,Rohtak,MD University, HSPCB,26-12-2023 22:00,28.52123,76.37138,CO,14,109,59
816,India,Harya0,Rohtak,MD University, HSPCB,26-12-2023 22:00,28.52123,76.37138,OZONE,36,42,40
817,India,Harya0,Sirsa,F, HSPCB,26-12-2023 22:00,29.5364,75.0158,PM10,62,136,85
818,India,Harya0,Sirsa,F, HSPCB,26-12-2023 22:00,29.5364,75.0158,NH3,12,13,13
819,India,Harya0,Sirsa,F, HSPCB,26-12-2023 22:00,29.5364,75.0158,CO,64,107,77
820,India,Harya0,Sonipat,Murthal, HSPCB,26-12-2023 22:00,29.0272,77.0621,PM10,112,233,149
821,India,Harya0,Yamu0 0gar,Gobind Pura, HSPCB,26-12-2023 22:00,30.1480566,77.2893471,PM2.5,61,348,189
822,India,Harya0,Yamu0 0gar,Gobind Pura, HSPCB,26-12-2023 22:00,30.1480566,77.2893471,CO,33,120,59
823,India,Himachal Pradesh,Baddi,HIMUDA Complex Phase, HPPCB,26-12-2023 22:00,30.943887,76.801991,NO2,21,97,55
824,India,Himachal Pradesh,Baddi,HIMUDA Complex Phase, HPPCB,26-12-2023 22:00,30.943887,76.801991,NH3,6,9,7
825,India,Himachal Pradesh,Baddi,HIMUDA Complex Phase, HPPCB,26-12-2023 22:00,30.943887,76.801991,CO,34,108,63
826,India,Jammu_and_Kashmir,Sri0gar,Rajbagh, JKSPCB,26-12-2023 22:00,34.066206,74.81982,PM2.5,0,0,0
827,India,Jharkhand,Dhanbad,Kalakusuma, DMC,26-12-2023 22:00,23.811548,86.481238,SO2,111,121,114
828,India,Jharkhand,Dhanbad,Sardar Patel 0gar, JSPCB,26-12-2023 22:00,23.80569,86.44268,PM2.5,53,120,83
829,India,Jharkhand,Dhanbad,Sardar Patel 0gar, JSPCB,26-12-2023 22:00,23.80569,86.44268,CO,0,0,0
830,India,Kar0taka,Bagalkot,Vidayagiri, KSPCB,26-12-2023 22:00,16.172806,75.659694,PM2.5,30,44,43
831,India,Kar0taka,Bagalkot,Vidayagiri, KSPCB,26-12-2023 22:00,16.172806,75.659694,NH3,2,2,2
832,India,Kar0taka,Belgaum,Ramteerth 0gar, KSPCB,26-12-2023 22:00,15.888653,74.541751,PM2.5,35,78,57
833,India,Kar0taka,Belgaum,Ramteerth 0gar, KSPCB,26-12-2023 22:00,15.888653,74.541751,NH3,17,32,23
834,India,Kar0taka,Bengaluru,BTM Layout, CPCB,26-12-2023 22:00,12.9135218,77.5950804,SO2,12,22,16
835,India,Kar0taka,Bengaluru,Bapuji 0gar, KSPCB,26-12-2023 22:00,12.951913,77.539784,NH3,1,1,1
836,India,Kar0taka,Bengaluru,Bapuji 0gar, KSPCB,26-12-2023 22:00,12.951913,77.539784,CO,20,76,54
837,India,Kar0taka,Bengaluru,Hebbal, KSPCB,26-12-2023 22:00,13.029152,77.585901,PM2.5,0,0,0
838,India,Kar0taka,Bengaluru,Hombegowda 0gar, KSPCB,26-12-2023 22:00,12.938539,77.5901,SO2,4,6,5
839,India,Kar0taka,Bengaluru,Hombegowda 0gar, KSPCB,26-12-2023 22:00,12.938539,77.5901,CO,11,34,20
840,India,Kar0taka,Bengaluru,Jaya0gar 5th Block, KSPCB,26-12-2023 22:00,12.920984,77.584908,PM2.5,37,126,76
841,India,Kar0taka,Bengaluru,Jaya0gar 5th Block, KSPCB,26-12-2023 22:00,12.920984,77.584908,NO2,10,13,11
842,India,Kar0taka,Bengaluru,Jaya0gar 5th Block, KSPCB,26-12-2023 22:00,12.920984,77.584908,NH3,2,3,3
843,India,Kar0taka,Bengaluru,Jaya0gar 5th Block, KSPCB,26-12-2023 22:00,12.920984,77.584908,CO,2,31,21
844,India,Kar0taka,Bengaluru,Jigani, KSPCB,26-12-2023 22:00,12.7816279,77.6299145,SO2,6,15,11
845,India,Kar0taka,Bengaluru,Jigani, KSPCB,26-12-2023 22:00,12.7816279,77.6299145,OZONE,7,53,36
846,India,Kar0taka,Bengaluru,RVCE, KSPCB,26-12-2023 22:00,12.921418,77.502466,NH3,4,4,4
847,India,Kar0taka,Bengaluru,Sanegurava Halli, KSPCB,26-12-2023 22:00,12.990328,77.5431385,SO2,1,3,2
848,India,Kar0taka,Bengaluru,Shivapura_Peenya, KSPCB,26-12-2023 22:00,13.0246342,77.5080115,NO2,15,16,15
849,India,Kar0taka,Bengaluru,Shivapura_Peenya, KSPCB,26-12-2023 22:00,13.0246342,77.5080115,CO,17,57,33
850,India,Kar0taka,Bengaluru,Shivapura_Peenya, KSPCB,26-12-2023 22:00,13.0246342,77.5080115,OZONE,7,89,51
851,India,Kar0taka,Bengaluru,Silk Board, KSPCB,26-12-2023 22:00,12.917348,77.622813,PM2.5,16,92,51
852,India,Kar0taka,Bengaluru,Silk Board, KSPCB,26-12-2023 22:00,12.917348,77.622813,NO2,18,27,22
853,India,Kar0taka,Bengaluru,Silk Board, KSPCB,26-12-2023 22:00,12.917348,77.622813,NH3,3,5,4
854,India,Kar0taka,Bengaluru,Silk Board, KSPCB,26-12-2023 22:00,12.917348,77.622813,CO,6,30,17
855,India,Kar0taka,Bengaluru,Silk Board, KSPCB,26-12-2023 22:00,12.917348,77.622813,OZONE,8,21,19
856,India,Kar0taka,Chamaraja0gar,Urban, KSPCB,26-12-2023 22:00,11.55358,76.55521,PM10,39,55,46
857,India,Kar0taka,Chikkaballapur,Chikkaballapur Rural, KSPCB,26-12-2023 22:00,13.428828,77.731418,PM2.5,18,97,65
858,India,Kar0taka,Chikkaballapur,Chikkaballapur Rural, KSPCB,26-12-2023 22:00,13.428828,77.731418,PM10,48,116,68
859,India,Kar0taka,Chikkamagaluru,Kalya0 0gara, KSPCB,26-12-2023 22:00,13.328028,75.797056,SO2,1,6,4
860,India,Kar0taka,Chikkamagaluru,Kalya0 0gara, KSPCB,26-12-2023 22:00,13.328028,75.797056,OZONE,18,62,45
861,India,Kar0taka,Dava0gere,Devaraj Urs Badavane, KSPCB,26-12-2023 22:00,14.4758,75.9052,PM2.5,36,177,69
862,India,Kar0taka,Dharwad,Kalabhavan, KSPCB,26-12-2023 22:00,15.459706,75.008381,PM2.5,31,55,45
863,India,Kar0taka,Dharwad,Kalabhavan, KSPCB,26-12-2023 22:00,15.459706,75.008381,NO2,1,33,20
864,India,Kar0taka,Dharwad,Kalabhavan, KSPCB,26-12-2023 22:00,15.459706,75.008381,NH3,3,3,3
865,India,Kar0taka,Dharwad,Kalabhavan, KSPCB,26-12-2023 22:00,15.459706,75.008381,CO,49,140,92
866,India,Kar0taka,Gadag,Panchal 0gar, KSPCB,26-12-2023 22:00,15.411456,75.638133,CO,45,61,48
867,India,Kar0taka,Haveri,Ashwini 0gar, KSPCB,26-12-2023 22:00,14.7918,75.3896,SO2,13,14,13
868,India,Kar0taka,Hubballi,Deshpande 0gar, KSPCB,26-12-2023 22:00,15.351773,75.140726,NO2,26,29,27
869,India,Kar0taka,Hubballi,Lingaraj 0gar, KSPCB,26-12-2023 22:00,15.3714823,75.1160168,NO2,16,16,16
870,India,Kar0taka,Kalaburagi,Mahatma Basaveswar Colony, KSPCB,26-12-2023 22:00,17.336318,76.847397,PM2.5,10,44,28
871,India,Kar0taka,Karwar,KHB Colony, KSPCB,26-12-2023 22:00,14.816666,74.141003,NO2,6,13,9
872,India,Kar0taka,Kolar,Tamaka Ind. Area, KSPCB,26-12-2023 22:00,13.1276288,78.1570122,NH3,4,8,6
873,India,Kar0taka,Kolar,Tamaka Ind. Area, KSPCB,26-12-2023 22:00,13.1276288,78.1570122,SO2,13,14,13
874,India,Kar0taka,Madikeri,Stuart Hill, KSPCB,26-12-2023 22:00,12.415911,75.73505,PM2.5,10,46,31
875,India,Kar0taka,Mangalore,Kadri, KSPCB,26-12-2023 22:00,12.88925,74.853,OZONE,29,34,31
876,India,Kar0taka,Mysuru,Hebbal 1st Stage, KSPCB,26-12-2023 22:00,12.21041,76.37376,PM2.5,23,46,33
877,India,Kar0taka,Mysuru,Hebbal 1st Stage, KSPCB,26-12-2023 22:00,12.21041,76.37376,PM10,31,54,43
878,India,Kar0taka,Mysuru,Hebbal 1st Stage, KSPCB,26-12-2023 22:00,12.21041,76.37376,SO2,3,10,5
879,India,Kar0taka,Raichur,Haji Colony, KSPCB,26-12-2023 22:00,16.208139,77.348417,OZONE,3,164,73
880,India,Kar0taka,Rama0gara,Vijay 0gar, KSPCB,26-12-2023 22:00,12.733409,77.298051,NH3,2,3,3
881,India,Kar0taka,Rama0gara,Vijay 0gar, KSPCB,26-12-2023 22:00,12.733409,77.298051,CO,2,36,21
882,India,Kar0taka,Rama0gara,Vijay 0gar, KSPCB,26-12-2023 22:00,12.733409,77.298051,OZONE,24,26,25
883,India,Kar0taka,Shivamogga,Vinoba 0gara, KSPCB,26-12-2023 22:00,13.94,75.555917,NO2,12,29,15
884,India,Kar0taka,Shivamogga,Vinoba 0gara, KSPCB,26-12-2023 22:00,13.94,75.555917,CO,20,36,25
885,India,Kar0taka,Tumakuru,Thimmalapura, KSPCB,26-12-2023 22:00,13.377516,77.099072,PM2.5,46,131,83
886,India,Kar0taka,Udupi,Brahmagiri, KSPCB,26-12-2023 22:00,13.34194444,74.74694444,PM10,33,94,52
887,India,Kar0taka,Vijayapura,Ibrahimpur, KSPCB,26-12-2023 22:00,16.802639,75.722694,SO2,1,2,1
888,India,Kerala,Kannur,Thavakkara, Kerala PCB,26-12-2023 22:00,11.875,75.3732,PM2.5,37,44,40
889,India,Kerala,Kannur,Thavakkara, Kerala PCB,26-12-2023 22:00,11.875,75.3732,NH3,1,1,1
890,India,Kerala,Kochi,Vyttila, Kerala PCB,26-12-2023 22:00,9.969447,76.321186,PM10,54,154,86
891,India,Kerala,Kollam,Polayathode, Kerala PCB,26-12-2023 22:00,8.8787,76.6073,NH3,1,1,1
892,India,Kerala,Thiruva0nthapuram,Kariavattom, Kerala PCB,26-12-2023 22:00,8.5637,76.8865,NH3,1,1,1
893,India,Kerala,Thiruva0nthapuram,Plammoodu, Kerala PCB,26-12-2023 22:00,8.5149093,76.9435879,NO2,9,14,12
894,India,Kerala,Thrissur,Corporation Ground, Kerala PCB,26-12-2023 22:00,10.5324,76.2159,CO,14,62,26
895,India,Madhya Pradesh,Bhopal,Idgah Hills, MPPCB,26-12-2023 22:00,23.264759,77.381568,PM2.5,85,315,255
896,India,Madhya Pradesh,Bhopal,Idgah Hills, MPPCB,26-12-2023 22:00,23.264759,77.381568,PM10,106,192,163
897,India,Madhya Pradesh,Bhopal,Idgah Hills, MPPCB,26-12-2023 22:00,23.264759,77.381568,NH3,5,8,6
898,India,Madhya Pradesh,Bhopal,Paryavaran Parisar, MPPCB,26-12-2023 22:00,23.210494,77.425409,SO2,8,26,13
899,India,Madhya Pradesh,Bhopal,Paryavaran Parisar, MPPCB,26-12-2023 22:00,23.210494,77.425409,OZONE,2,109,58
900,India,Madhya Pradesh,Damoh,Shrivastav Colony, MPPCB,26-12-2023 22:00,23.81748678,79.446246,NO2,6,7,7
901,India,Madhya Pradesh,Dewas,Bhopal Chauraha, MPPCB,26-12-2023 22:00,22.9682591,76.064118,PM2.5,143,325,270
902,India,Madhya Pradesh,Dewas,Bhopal Chauraha, MPPCB,26-12-2023 22:00,22.9682591,76.064118,SO2,11,67,32
903,India,Madhya Pradesh,Gwalior,City Center, MPPCB,26-12-2023 22:00,26.203442,78.193251,PM2.5,22,431,212
904,India,Madhya Pradesh,Gwalior,Phool Bagh, Mondelez Ind. Food,26-12-2023 22:00,26.210536,78.171,PM2.5,303,460,364
905,India,Madhya Pradesh,Gwalior,Phool Bagh, Mondelez Ind. Food,26-12-2023 22:00,26.210536,78.171,PM10,121,414,258
906,India,Madhya Pradesh,Indore,Chhoti Gwaltoli, MPPCB,26-12-2023 22:00,22.431,75.5213,NO2,53,175,100
907,India,Madhya Pradesh,Indore,Chhoti Gwaltoli, MPPCB,26-12-2023 22:00,22.431,75.5213,NH3,3,8,7
908,India,Madhya Pradesh,Indore,Maguda 0gar, IMC,26-12-2023 22:00,22.7524,75.8872,CO,26,36,30
909,India,Madhya Pradesh,Indore,Regio0l Park, IMC,26-12-2023 22:00,22.678,75.8559,OZONE,5,17,11
910,India,Madhya Pradesh,Jabalpur,Govindh Bhavan Colony, JMC,26-12-2023 22:00,23.163174,79.973061,SO2,5,24,11
911,India,Madhya Pradesh,Jabalpur,Govindh Bhavan Colony, JMC,26-12-2023 22:00,23.163174,79.973061,CO,32,52,43
912,India,Madhya Pradesh,Jabalpur,Gupteshwar, JMC,26-12-2023 22:00,23.142888,79.916147,PM10,50,159,89
913,India,Madhya Pradesh,Jabalpur,Marhatal, MPPCB,26-12-2023 22:00,23.168606,79.932247,NH3,5,7,6
914,India,Madhya Pradesh,Jabalpur,Marhatal, MPPCB,26-12-2023 22:00,23.168606,79.932247,CO,40,150,96
915,India,Madhya Pradesh,Jabalpur,Suhagi, JMC,26-12-2023 22:00,23.218135,79.95777,PM2.5,82,297,180
916,India,Madhya Pradesh,Jabalpur,Suhagi, JMC,26-12-2023 22:00,23.218135,79.95777,PM10,100,193,145
917,India,Madhya Pradesh,Jabalpur,Suhagi, JMC,26-12-2023 22:00,23.218135,79.95777,NH3,2,4,2
918,India,Madhya Pradesh,Katni,Gole Bazar, MPPCB,26-12-2023 22:00,23.50016,80.23284,PM10,68,422,162
919,India,Madhya Pradesh,Katni,Gole Bazar, MPPCB,26-12-2023 22:00,23.50016,80.23284,OZONE,6,98,49
920,India,Madhya Pradesh,Maihar,Sahilara, KJS Cements,26-12-2023 22:00,24.2613009,80.7231783,PM10,32,151,84
921,India,Madhya Pradesh,Mandideep,Sector, MPPCB,26-12-2023 22:00,23.10844,77.511428,CO,28,109,57
922,India,Madhya Pradesh,Pithampur,Sector, MPPCB,26-12-2023 22:00,22.624758,75.675238,NH3,4,6,5
923,India,Madhya Pradesh,Sagar,Civil Lines, MPPCB,26-12-2023 22:00,23.838586,78.759431,NO2,10,16,12
924,India,Madhya Pradesh,Sat0,Bandhavgar Colony, Birla Cement,26-12-2023 22:00,24.58434363,80.8549414,PM2.5,1,45,25
925,India,Madhya Pradesh,Sat0,Bandhavgar Colony, Birla Cement,26-12-2023 22:00,24.58434363,80.8549414,PM10,36,95,57
926,India,Madhya Pradesh,Sat0,Bandhavgar Colony, Birla Cement,26-12-2023 22:00,24.58434363,80.8549414,OZONE,58,92,76
927,India,Madhya Pradesh,Singrauli,Suryakiran Bhawan NCL, MPPCB,26-12-2023 22:00,24.10897,82.64558,NH3,2,2,2
928,India,Madhya Pradesh,Ujjain,Mahakaleshwar Temple, MPPCB,26-12-2023 22:00,23.182719,75.768218,PM10,128,296,189
929,India,Maharashtra,Ahmed0gar,Tarakpur, MPCB,26-12-2023 22:00,19.10122,74.73339,OZONE,7,149,75
930,India,Maharashtra,Akola,Ramdaspeth, MPCB,26-12-2023 22:00,20.719516,77.000253,NO2,14,102,44
931,India,Maharashtra,Amravati,Shivneri Colony, MPCB,26-12-2023 22:00,20.9402359,77.7895248,PM10,148,192,166
932,India,Maharashtra,Amravati,Shivneri Colony, MPCB,26-12-2023 22:00,20.9402359,77.7895248,NO2,15,113,65
933,India,Maharashtra,Aurangabad,MIDC Chilkaltha0, MPCB,26-12-2023 22:00,19.87562,75.38731,PM10,4,317,185
934,India,Maharashtra,Aurangabad,MIDC Chilkaltha0, MPCB,26-12-2023 22:00,19.87562,75.38731,SO2,2,26,11
935,India,Maharashtra,Badlapur,Katrap, MPCB,26-12-2023 22:00,19.16485,73.23409,OZONE,3,110,65
936,India,Maharashtra,Belapur,CBD Belapur, MPCB,26-12-2023 22:00,19.0243902,73.0406721,PM10,0,0,0
937,India,Maharashtra,Belapur,CBD Belapur, MPCB,26-12-2023 22:00,19.0243902,73.0406721,SO2,0,0,0
938,India,Maharashtra,Bhiwandi,Gokul 0gar, MPCB,26-12-2023 22:00,19.309073,73.057223,PM2.5,92,357,231
939,India,Maharashtra,Bhiwandi,Gokul 0gar, MPCB,26-12-2023 22:00,19.309073,73.057223,OZONE,10,111,77
940,India,Maharashtra,Chandrapur,Chauhan Colony, MPCB,26-12-2023 22:00,19.9629,79.298714,PM10,129,224,168
941,India,Maharashtra,Chandrapur,Chauhan Colony, MPCB,26-12-2023 22:00,19.9629,79.298714,SO2,4,34,14
942,India,Maharashtra,Dhule,Deopur, MPCB,26-12-2023 22:00,20.918946,74.776388,PM2.5,82,357,218
943,India,Maharashtra,Dhule,Deopur, MPCB,26-12-2023 22:00,20.918946,74.776388,NO2,13,46,23
944,India,Maharashtra,Dhule,Deopur, MPCB,26-12-2023 22:00,20.918946,74.776388,NH3,2,3,2
945,India,Maharashtra,Dhule,Deopur, MPCB,26-12-2023 22:00,20.918946,74.776388,OZONE,7,89,58
946,India,Maharashtra,Jalgaon,Prabhat Colony, MPCB,26-12-2023 22:00,21.001264,75.565602,PM2.5,68,348,163
947,India,Maharashtra,Jalgaon,Prabhat Colony, MPCB,26-12-2023 22:00,21.001264,75.565602,PM10,80,286,140
948,India,Maharashtra,Jalgaon,Prabhat Colony, MPCB,26-12-2023 22:00,21.001264,75.565602,NH3,4,11,9
949,India,Maharashtra,Jal0,Old MIDC, MPCB,26-12-2023 22:00,19.854616,75.905894,PM2.5,99,305,200
950,India,Maharashtra,Jal0,Old MIDC, MPCB,26-12-2023 22:00,19.854616,75.905894,SO2,1,19,10
951,India,Maharashtra,Jal0,Old MIDC, MPCB,26-12-2023 22:00,19.854616,75.905894,CO,24,41,27
952,India,Maharashtra,Kolhapur,Shivaji University, MPCB,26-12-2023 22:00,16.6870449,74.2505872,NO2,2,12,6
953,India,Maharashtra,Kolhapur,Sinchan Bhavan, MPCB,26-12-2023 22:00,16.7143745,74.2426398,NH3,7,8,7
954,India,Maharashtra,Kolhapur,Sinchan Bhavan, MPCB,26-12-2023 22:00,16.7143745,74.2426398,SO2,1,6,2
955,India,Maharashtra,Latur,Sawe Wadi, MPCB,26-12-2023 22:00,18.39963,76.57452,OZONE,3,121,72
956,India,Maharashtra,Mahad,Kamble Tarf Birwadi, MPCB,26-12-2023 22:00,18.1023399,73.4783687,PM2.5,88,216,141
957,India,Maharashtra,Mahad,Kamble Tarf Birwadi, MPCB,26-12-2023 22:00,18.1023399,73.4783687,CO,21,40,31
958,India,Maharashtra,Mahad,Kamble Tarf Birwadi, MPCB,26-12-2023 22:00,18.1023399,73.4783687,OZONE,6,94,54
959,India,Maharashtra,Mira-Bhayandar,Bhayandar West, MPCB,26-12-2023 22:00,19.296481,72.840923,NO2,13,71,44
960,India,Maharashtra,Mumbai,Bandra Kurla Complex, MPCB,26-12-2023 22:00,19.065931,72.862131,NH3,14,44,23
961,India,Maharashtra,Mumbai,Bandra Kurla Complex, MPCB,26-12-2023 22:00,19.065931,72.862131,SO2,3,36,14
962,India,Maharashtra,Mumbai,Bandra Kurla Complex, MPCB,26-12-2023 22:00,19.065931,72.862131,OZONE,1,142,74
963,India,Maharashtra,Mumbai,Borivali East, IITM,26-12-2023 22:00,19.23241,72.86895,NO2,62,127,89
964,India,Maharashtra,Mumbai,Borivali East, IITM,26-12-2023 22:00,19.23241,72.86895,NH3,3,4,3
965,India,Maharashtra,Mumbai,Byculla, BMC,26-12-2023 22:00,18.9767,72.838,PM2.5,111,304,210
966,India,Maharashtra,Mumbai,Chakala, IITM,26-12-2023 22:00,19.11074,72.86084,PM10,100,196,145
967,India,Maharashtra,Mumbai,Chembur, MPCB,26-12-2023 22:00,19.0364585,72.8954371,NH3,2,3,2
968,India,Maharashtra,Mumbai,Chembur, MPCB,26-12-2023 22:00,19.0364585,72.8954371,OZONE,9,126,78
969,India,Maharashtra,Mumbai,Chhatrapati Shivaji Intl. Airport (T2), MPCB,26-12-2023 22:00,19.10078,72.87462,PM10,68,165,127
970,India,Maharashtra,Mumbai,Chhatrapati Shivaji Intl. Airport (T2), MPCB,26-12-2023 22:00,19.10078,72.87462,NO2,0,0,0
971,India,Maharashtra,Mumbai,Colaba, MPCB,26-12-2023 22:00,18.91,72.82,PM2.5,86,226,141
972,India,Maharashtra,Mumbai,Colaba, MPCB,26-12-2023 22:00,18.91,72.82,PM10,86,154,119
973,India,Maharashtra,Mumbai,Kandivali East, MPCB,26-12-2023 22:00,19.2058,72.8682,PM10,85,152,121
974,India,Maharashtra,Mumbai,Kandivali West, BMC,26-12-2023 22:00,19.215859,72.831718,PM2.5,114,241,189
975,India,Maharashtra,Mumbai,Khindipada, IITM,26-12-2023 22:00,19.1653323,72.922099,PM2.5,0,0,0
976,India,Maharashtra,Mumbai,Khindipada, IITM,26-12-2023 22:00,19.1653323,72.922099,NH3,0,0,0
977,India,Maharashtra,Mumbai,Kurla, MPCB,26-12-2023 22:00,19.0863,72.8888,SO2,32,32,32
978,India,Maharashtra,Mumbai,Kurla, MPCB,26-12-2023 22:00,19.0863,72.8888,OZONE,34,39,36
979,India,Maharashtra,Mumbai,Malad West, IITM,26-12-2023 22:00,19.19709,72.82204,OZONE,2,74,49
980,India,Maharashtra,Mumbai,Mazgaon, IITM,26-12-2023 22:00,18.96702,72.84214,PM10,108,152,128
981,India,Maharashtra,Mumbai,Mazgaon, IITM,26-12-2023 22:00,18.96702,72.84214,NH3,6,16,10
982,India,Maharashtra,Mumbai,Mindspace, MPCB,26-12-2023 22:00,19.1878657,72.8304069,NH3,8,9,8
983,India,Maharashtra,Mumbai,Mindspace, MPCB,26-12-2023 22:00,19.1878657,72.8304069,SO2,4,18,8
984,India,Maharashtra,Mumbai,Mulund West, MPCB,26-12-2023 22:00,19.175,72.9419,PM10,105,219,146
985,India,Maharashtra,Mumbai,0vy 0gar, IITM,26-12-2023 22:00,18.897756,72.81332,NO2,21,106,62
986,India,Maharashtra,Mumbai,0vy 0gar, IITM,26-12-2023 22:00,18.897756,72.81332,SO2,3,62,25
987,India,Maharashtra,Mumbai,0vy 0gar, IITM,26-12-2023 22:00,18.897756,72.81332,CO,36,84,50
988,India,Maharashtra,Mumbai,Powai, MPCB,26-12-2023 22:00,19.1375,72.915056,PM10,103,187,135
989,India,Maharashtra,Mumbai,Powai, MPCB,26-12-2023 22:00,19.1375,72.915056,CO,38,52,47
990,India,Maharashtra,Mumbai,Shivaji 0gar, BMC,26-12-2023 22:00,19.060498,72.923356,PM2.5,219,336,283
991,India,Maharashtra,Mumbai,Shivaji 0gar, BMC,26-12-2023 22:00,19.060498,72.923356,NO2,60,205,123
992,India,Maharashtra,Mumbai,Shivaji 0gar, BMC,26-12-2023 22:00,19.060498,72.923356,SO2,15,53,32
993,India,Maharashtra,Mumbai,Siddharth 0gar, IITM,26-12-2023 22:00,19.000083,72.813993,CO,101,106,104
994,India,Maharashtra,Mumbai,Sion, MPCB,26-12-2023 22:00,19.047,72.8746,PM2.5,78,267,177
995,India,Maharashtra,Mumbai,Sion, MPCB,26-12-2023 22:00,19.047,72.8746,NH3,1,3,2
996,India,Maharashtra,Mumbai,Sion, MPCB,26-12-2023 22:00,19.047,72.8746,SO2,35,39,37
997,India,Maharashtra,Mumbai,Vasai West, MPCB,26-12-2023 22:00,19.3832,72.8204,NH3,4,4,4
998,India,Maharashtra,Mumbai,Vile Parle West, MPCB,26-12-2023 22:00,19.10861,72.83622,PM2.5,0,0,0
999,India,Maharashtra,Mumbai,Worli, MPCB,26-12-2023 22:00,18.9936162,72.8128113,PM2.5,69,138,98
1000,India,Maharashtra,Mumbai,Worli, MPCB,26-12-2023 22:00,18.9936162,72.8128113,NH3,1,1,1
1001,India,Maharashtra,0gpur,Ambazari, MPCB,26-12-2023 22:00,21.121801,79.04952,PM2.5,294,362,318
1002,India,Maharashtra,0gpur,Ambazari, MPCB,26-12-2023 22:00,21.121801,79.04952,PM10,138,256,172
1003,India,Maharashtra,0gpur,Ambazari, MPCB,26-12-2023 22:00,21.121801,79.04952,CO,26,107,73
1004,India,Maharashtra,0gpur,Mahal, MPCB,26-12-2023 22:00,21.14472,79.107595,PM2.5,160,315,224
1005,India,Maharashtra,0gpur,Opp GPO Civil Lines, MPCB,26-12-2023 22:00,21.152875,79.0517531,SO2,1,41,18
1006,India,Maharashtra,0gpur,Ram 0gar, MPCB,26-12-2023 22:00,21.143383,79.048912,NH3,7,35,14
1007,India,Maharashtra,0shik,Gangapur Road, MPCB,26-12-2023 22:00,20.0073285,73.7762427,PM2.5,89,322,204
1008,India,Maharashtra,0shik,Gangapur Road, MPCB,26-12-2023 22:00,20.0073285,73.7762427,NO2,6,16,10
1009,India,Maharashtra,0shik,Hirawadi, MPCB,26-12-2023 22:00,20.021503,73.813844,NO2,18,116,57
1010,India,Maharashtra,0shik,Hirawadi, MPCB,26-12-2023 22:00,20.021503,73.813844,SO2,2,12,7
1011,India,Maharashtra,0shik,MIDC Ambad, MPCB,26-12-2023 22:00,19.95022,73.73148,OZONE,5,103,67
1012,India,Maharashtra,0shik,Pandav 0gari, MPCB,26-12-2023 22:00,19.9591346,73.7788008,NH3,6,13,8
1013,India,Maharashtra,0shik,Pandav 0gari, MPCB,26-12-2023 22:00,19.9591346,73.7788008,CO,38,106,54
1014,India,Maharashtra,0vi Mumbai,Kopripada, MPCB,26-12-2023 22:00,19.090337,73.014232,PM2.5,102,302,205
1015,India,Maharashtra,0vi Mumbai,Kopripada, MPCB,26-12-2023 22:00,19.090337,73.014232,NO2,43,205,131
1016,India,Maharashtra,0vi Mumbai,Kopripada, MPCB,26-12-2023 22:00,19.090337,73.014232,NH3,7,61,22
